STATION_ID,STATION,BEGIN_DATE,END_DATE,STATE,COUNTRY,LATITUDE,LONGITUDE,ELEVATION
71891799999,108 MILE HOUSE,1992-08-07,1995-04-14,null,CA,51.733,-121.333,953
71891799999,108 MILE HOUSE,1992-08-07,1995-04-14,null,CA,51.733,-121.333,953
99726899999,9076070 - S.W. PIER  MI,2004-11-22,2024-01-06,null,US,46.5,-84.37,185.7
71108099999,ABBOTSFORD,1955-07-02,2024-01-06,null,CA,49.025278,-122.363333,59.43
74108099999,ABBOTSFORD AIRPORT,1957-01-01,1977-06-30,null,CA,49.017,-122.367,58
71285099999,ABEE AGDM  ALTA,2004-08-24,2024-01-06,null,CA,54.2833333,-112.9666666,664
71048099999,ACADIA VALLEY,1995-04-23,2024-01-06,null,CA,51.05,-110.3166666,735
74113099999,AGASSIZ (AUTO),1973-01-01,1977-06-30,null,CA,50.15,-122.95,668
71113099999,AGASSIZ CS,1977-07-04,2024-01-06,null,CA,49.25,-121.7666666,19
71957599999,AKLAVIK,1978-12-05,2024-01-06,null,CA,68.223333,-135.005833,6.4
71005099999,ALBERT HALL AGCM,2007-11-24,2024-01-06,null,CA,53.1,-111.1666666,658
74110099999,ALERT BAY,1973-01-01,1977-06-30,null,CA,50.583,-126.933,50
71393199999,ALEXANDRIA,2005-01-01,2006-05-24,null,CA,45.317,-74.6,77
99849299999,ALGONAC,2012-01-18,2024-01-06,MI,US,42.621,-82.527,179.2
71581099999,ALGONQUIN PARK EAST GATE,2005-02-01,2024-01-06,null,CA,45.5333333,-78.2666666,397
71006099999,ALLIANCE AGCM,2007-11-24,2024-01-06,null,CA,52.3,-111.7666666,737
71410999999,AMHERST,2005-01-01,2005-05-04,null,CA,45.85,-64.267,23
74390599999,AMHERST MET ST,1976-10-23,1977-02-17,null,CA,45.833,-64.2,0
71386099999,AMQUI  QUE,2001-09-16,2019-07-08,null,CA,48.4666666,-67.4333333,166
71286099999,ANDREW AGDM  ALTA,2004-08-24,2024-01-06,null,CA,53.9166666,-112.2666666,625
71918199999,ARCTIC BAY        &,1940-01-01,1963-07-31,null,CA,73.033,-85.15,1
71592099999,ARCTIC BAY CS,2003-06-17,2024-01-06,null,CA,73,-85.0166666,10
71841099999,ARMSTRONG (AUT)  ONT,1950-01-01,2024-01-06,null,CA,50.2833333,-88.9,323
71841499999,ARMSTRONG (MARS),1982-01-01,1983-07-21,null,CA,50.283,-88.9,322
72841099999,ARMSTRONG (MARS),1973-01-01,1977-06-30,null,CA,50.283,-88.9,322
71439399999,ARNES (AUTO8),1988-10-14,1995-06-05,null,CA,50.8,-96.883,221
71592599999,ARTIC BAY,2011-01-13,2024-01-06,null,CA,73,-85.0333333,22
71112199999,ASHCROFT,1955-07-02,1963-07-31,null,CA,50.7,-121.317,488
71681099999,ASHCROFT,2003-04-05,2024-01-06,null,CA,50.7,-121.2666666,327
71487099999,ASSINIBOIA AIRPORT  SASK,1991-09-11,2024-01-06,null,CA,49.7333333,-105.9333333,726
71271099999,ATHABASCA AGCM,1994-12-01,2024-01-06,null,CA,54.6333333,-113.3833333,635
71748399999,ATIKOKAN (AUT)    &,1988-12-08,1990-11-01,null,CA,48.767,-91.633,429
72748099999,ATIKOKAN (AUT)    &,1973-01-01,1977-06-30,null,CA,48.75,-91.617,391
71747099999,ATIKOKAN (AUT)  ONT,2001-09-16,2024-01-06,null,CA,48.75,-91.6166666,389
71986099999,ATLEE,1995-10-01,2024-01-06,null,CA,50.8,-111,795
69407099999,ATLIN,1978-10-26,1980-12-02,null,CA,59.5833333,-133.6666666,716
71287099999,ATMORE AGDM  ALTA,2004-08-24,2024-01-06,null,CA,54.7666666,-112.8166666,574
71974099999,AULVIK NATIONAL PARK,1996-11-01,2024-01-06,null,CA,74.13,-119.98,32
71843399999,AUPALUKA,2004-05-18,2024-01-06,null,CA,59.29667,-69.98339,36.9
71088199999,AXEL HEIBERG ISLAND,1961-08-20,1961-11-30,null,CA,78.2,-89.717,61
71981099999,AZURE,1994-12-01,2024-01-06,null,CA,50.5,-114,1143
74143099999,BACHELORS IL (AUT),1973-01-01,1977-06-30,null,CA,51.033,-95.667,256
71143099999,BACHELORS ISLAND MARINE  MAN,1977-07-01,1997-12-31,null,CA,51.75,-99.9,256
71804599999,BADGER,1977-07-01,1983-05-01,null,CA,48.967,-56.067,105
71400099999,BADGER (AUT)  NFLD,1981-10-01,2024-01-06,null,CA,48.9666666,-56.0666666,103
72804599999,BADGER (MARS),1973-01-01,1977-06-30,null,CA,48.967,-56.067,105
71727099999,BAGOTVILLE,1950-01-02,2024-01-06,null,CA,48.330555,-70.996391,159.1
72727099999,BAGOTVILLE(CAN-MIL),1973-01-01,1977-06-30,null,CA,48.333,-71,159
71829099999,BAIE COMEAU  QUE,1996-03-01,2024-01-06,null,CA,49.25,-68.1333333,130
71926099999,BAKER LAKE,1946-02-01,2024-01-06,null,CA,64.31667,-96,51
72926099999,BAKER LAKE AIRPORT,1973-01-01,1977-06-30,null,CA,64.3,-96,11
71926599999,BAKER LAKE AIRPORT,1979-01-31,1986-04-13,null,CA,64.3,-96,11
71356099999,BAKER LAKE CLIMATE  NU,2004-09-21,2024-01-06,null,CA,64.3166666,-96,51
72890599999,BALLENAS IL AUTO8 &,1973-01-01,1977-06-30,null,CA,49.25,-124.833,1
71294099999,BANCROFT AUTO  ONT,2001-09-16,2024-01-06,null,CA,45.0666666,-77.8666666,331
71433599999,BANCROFT AUTO8,2000-06-13,2008-12-31,null,CA,45.067,-77.867,331
71122499999,BANFF,1979-01-31,1979-01-31,null,CA,51.183,-115.567,1384
74122099999,BANFF,1973-01-01,1977-06-30,null,CA,51.183,-115.567,1384
71122699999,BANFF (MARS),1981-11-12,2008-12-31,null,CA,51.2,-115.55,1396
71122099999,BANFF CS,1955-07-02,2024-01-06,null,CA,51.2,-115.55,1397
71346099999,BARNWELL AGDM  ALTA,2004-05-10,2024-01-06,null,CA,49.8,-112.3,824
71007099999,BARONS AGCM,2007-11-24,2024-01-06,null,CA,50.0166666,-113.2166666,967
71820199999,BARRAGE ANGLIERS,1955-07-02,2007-10-16,null,CA,47.55,-79.23,267
71732099999,BARRAGE TEMISCAMINGUE,2001-07-05,2024-01-06,null,CA,46.7166666,-79.1,181
71061099999,BARRHEAD CS,1977-07-08,2024-01-06,null,CA,54.1,-114.45,648
71314099999,BARRIE-ORO,2004-09-21,2024-01-06,null,CA,44.48,-79.55,289
71717599999,BAS CARAQUET,1993-07-24,1995-06-05,null,CA,47.8,-64.833,5
71598099999,BAS CARAQUET  NB,2003-06-17,2024-01-06,null,CA,47.8,-64.8333333,5
71008099999,BASSANO AGCM,2007-11-24,2024-01-06,null,CA,50.8833333,-112.45,807
71717399999,BATHURST,1991-02-04,1997-07-20,null,CA,47.617,-65.75,59
71574099999,BATHURST,2004-08-03,2024-01-06,null,CA,47.629723,-65.738889,58.82
69398099999,BATHURST ISLAND   &,1979-07-21,1979-08-29,null,CA,75.717,-98.417,0
71076499999,BEARTOOTH ISL(MAPS),1990-09-07,1993-06-15,null,CA,59.217,-109.7,238
71134099999,BEARTOOTH ISLAND,1993-07-01,1997-12-31,null,CA,59.22,-109.7,238
71694099999,BEATRICE CLIMATE,2005-11-02,2024-01-06,null,CA,45.1333333,-79.4,297
71939199999,BEATTON RIVER,1955-07-02,1963-07-31,null,CA,57.383,-121.383,840
71323099999,BEAUCEVILLE  QUE,1994-07-28,2024-01-06,null,CA,46.2,-70.7833333,229
71036599999,BEAUHARNOIS,2004-09-21,2006-07-18,null,CA,45.317,-73.9,22
71578099999,BEAUPORT  QUE,2003-06-17,2024-01-06,null,CA,46.8333333,-71.1833333,10
71140699999,BEAUSEJOUR,1979-01-31,1979-01-31,null,CA,50.067,-96.517,274
74140599999,BEAUSEJOUR,1975-04-01,1977-06-30,null,CA,50.067,-96.517,274
71140599999,BEAUSEJOUR (MAN),1977-07-01,1990-05-30,null,CA,50.067,-96.517,274
71272999999,BEAUSOLEIL,2005-01-01,2007-08-28,null,CA,44.85,-79.87,183
71432599999,BEAUSOLEIL ISL AUT&,1992-10-22,1995-01-04,null,CA,44.85,-79.867,183
72967599999,BEAVER CREEK ARPT,1973-01-01,1977-06-30,null,CA,62.383,-140.883,663
71967599999,BEAVER CREEK ARPT,1943-08-20,2024-01-06,null,CA,62.4166667,-140.8666667,649
71304099999,BEAVER MINES,2004-08-24,2024-01-06,null,CA,49.4666666,-114.1833333,1257
71230099999,BEAVERLODGE RCS  ALTA,1996-08-16,2024-01-06,null,CA,55.2,-119.4,745
71395599999,BEDFORD,1995-04-23,1995-06-05,null,CA,44.717,-63.683,33
71329099999,BEDFORD BASIN,2007-10-16,2024-01-06,null,CA,44.7,-63.6333333,4
71325099999,BEDFORD RANGE,2009-08-01,2024-01-06,null,CA,44.75,-63.6666666,10
71009099999,BEISEKER AGCM,2007-11-24,2024-01-06,null,CA,51.3666666,-113.35,896
71206099999,BELLA COOLA,1983-07-07,2024-01-06,null,CA,52.387501,-126.595833,35.66
71533099999,BELLA COOLA AIRPORT,2003-06-17,2024-01-06,null,CA,52.38333,-126.75,35.7
71533099999,BELLA COOLA AIRPORT,2003-06-17,2024-01-06,null,CA,52.38333,-126.75,35.7
71206399999,BELLA COOLA ARPT  &,1988-01-05,1993-03-09,null,CA,52.383,-126.583,35
72538599999,BELLE ISLE COAST GUARD STATION,1976-09-26,1996-07-01,MI,US,42.33,-82.97,177
71273599999,BELLE RIVER,2005-01-01,2005-03-07,null,CA,42.3,-82.7,184
71636399999,BELLE RIVER,1986-11-20,1994-12-20,null,CA,42.3,-82.7,184
71010099999,BELLSHILL AGCM,2007-10-16,2024-01-06,null,CA,52.5833333,-111.4666666,721
71859099999,BERENS RIVER,1985-06-18,1997-05-29,null,CA,52.35,-97.033,222
71842899999,BERENS RIVER,2004-05-18,2024-01-04,null,CA,52.35,-97.0333333,222
71158099999,BERENS RIVER CS  MAN,2001-09-16,2024-01-06,null,CA,52.35,-97.0333333,222
71062299999,BERNARD HARBOUR,2021-07-19,2024-01-06,null,CA,68.75528,-114.94,62
74062099999,BERNARD HARBOUR,1973-01-01,1977-06-30,null,CA,65.483,-110.367,451
71062299999,BERNARD HARBOUR,2021-07-19,2024-01-06,null,CA,68.75528,-114.94,62
71760099999,BIG CREEK (AUT),1996-11-01,1997-12-31,null,CA,51.27,-123.1,1670
71483599999,BIG CREEK(AUTO),1992-01-06,1995-05-23,null,CA,51.25,-123.083,1670
71748599999,BIG THUNDER,1995-02-10,1995-03-20,null,CA,48.283,-89.383,299
71748599999,BIG THUNDER,1995-02-10,1995-03-20,null,CA,48.283,-89.383,299
71208099999,BIG TROUT LAKE,1993-05-27,2024-01-06,null,CA,53.8166666,-89.9,224.1
71675099999,BIG TROUT LAKE,1994-11-16,2024-01-06,null,CA,53.8333333,-89.8666667,224
72848099999,BIG TROUT LAKE,1973-01-01,1977-06-26,null,CA,53.833,-89.867,218
71844099999,BIG TROUT LAKE READAC,1991-12-01,1997-12-31,null,CA,53.8166666,-89.9,222
71011099999,BIG VALLEY AGCM,2007-11-24,2024-01-06,null,CA,51.9833333,-112.8,870
71087199999,BIRD,1957-10-01,1963-07-31,null,CA,56.5,-94.2,87
71982099999,BLACK DIAMOND,1995-09-01,2024-01-06,null,CA,50.7,-114.15,1156
71924999999,BLACK TOP RIDGE (AUT),1988-05-13,1989-02-15,null,CA,80,-85.42,619
71756099999,BLACKCOMB BASE SLIDING CENTER,2008-03-22,2018-05-14,null,CA,50.1,-122.9333333,937
71808099999,BLANC SABLON A,1977-07-01,2024-01-06,null,CA,51.45,-57.1833333,36.88
71517099999,BLOOD TRIBE AGDM  ALTA,2004-09-21,2024-01-06,null,CA,49.5666666,-113.05,980
71883099999,BLUE RIVER,1977-07-01,2024-01-06,null,CA,52.116667,-119.283333,682.75
72883099999,BLUE RIVER (MAN),1973-01-01,1977-06-30,null,CA,52.117,-119.3,683
71883499999,BLUE RIVER CS,1980-02-16,2024-01-06,null,CA,52.13,-119.28,683
71214099999,BODO AGDM  ALTA,2004-08-24,2024-01-06,null,CA,52.1166666,-110.1,687
71178099999,BONAVISTA RCS,2005-01-01,2024-01-06,null,CA,48.6666666,-53.1166666,26
71383099999,BONNARD 1  QUE,1993-01-12,2024-01-06,null,CA,50.7166666,-71,498
71534099999,BORDEN,2003-06-17,2022-01-06,null,CA,44.25,-79.9166667,223
71901099999,BORDER (AUT),1977-07-01,1997-12-31,null,CA,55.33,-63.22,479
72901099999,BORDER (MAPS),1973-01-01,1977-06-30,null,CA,55.333,-63.217,486
71397599999,BOW DRILL III,1986-01-17,1989-05-17,null,CA,47.2,-55.1,0
71873799999,BOW ISLAND,1994-01-03,1994-03-14,null,CA,49.617,-111.45,838
71231099999,BOW ISLAND,1994-02-01,2024-01-06,null,CA,49.7333333,-111.45,817
71519099999,BOW ISLAND IRRIGATION AGDM,2004-09-21,2022-08-18,null,CA,49.8666667,-111.383333,799
71232099999,BOW VALLEY  ALTA,1993-06-07,2024-01-06,null,CA,51.0833333,-115.0666666,1298
71122899999,BOW VALLEY (AUTOB),1991-08-01,1993-03-30,null,CA,51.083,-115.067,1298
71103499999,BOWRON LAKE LODGE,1991-01-08,1991-02-07,null,CA,53.25,-121.417,914
74140099999,BRANDON AIRPORT,1973-01-01,1977-06-30,null,CA,49.917,-99.95,409
71140099999,BRANDON MUNI,1977-07-01,2024-01-06,null,CA,49.9166666,-99.95,409.34
71136099999,BRANDON RCS - MB,2004-09-24,2024-01-06,null,CA,49.907583,-99.946255,405
71569099999,BRATT'S LAKE UA  SASK,2001-09-16,2024-01-06,null,CA,50.2,-104.7,580
71233099999,BRETON PLOTS  ALTA,2004-10-05,2024-01-06,null,CA,53.0833333,-114.4333333,852
71097099999,BREVOORT ISLAND,1960-04-28,2023-09-05,null,CA,63.33,-64.15,367
72732099999,BRITT,1976-11-17,1977-02-17,null,CA,45.8,-80.533,192
71615099999,BRITT (AUT),2017-02-28,2017-03-15,null,CA,45.8,-80.53,190
71737199999,BROADVIEW,2005-03-17,2005-08-11,null,CA,50.383,-102.683,602
71861499999,BROADVIEW         &,1979-01-31,1979-06-04,null,CA,50.383,-102.583,599
72861099999,BROADVIEW         &,1973-01-01,1977-06-30,null,CA,50.383,-102.583,599
71861099999,BROADVIEW  SASK,1955-07-02,2024-01-06,null,CA,50.3680556,-102.570833,599.8
71921199999,BROCHET,1955-07-02,1963-07-31,null,CA,57.883,-101.667,344
71912499999,BROCHET,1991-11-01,1992-12-10,null,CA,57.883,-101.683,346
71912499999,BROCHET,1991-11-01,1992-12-10,null,CA,57.883,-101.683,346
71921499999,BROCHET,1978-10-13,1980-05-31,null,CA,57.883,-101.683,346
72921099999,BROCHET           &,1973-01-01,1977-03-31,null,CA,57.883,-101.667,344
71341099999,BROCKET AGDM  ALTA,2004-05-10,2024-01-06,null,CA,49.6166666,-113.8166666,1073
71161099999,BROCKVILLE CLIMATE,1993-07-01,2024-01-06,null,CA,44.6333333,-75.7333333,120
74126099999,BROOKS,1973-01-01,1977-08-16,null,CA,50.55,-111.9,755
71457099999,BROOKS  ALTA,1991-08-01,2024-01-06,null,CA,50.55,-111.85,747
71283099999,BROWNVALE AGCM,1994-12-01,2023-10-12,null,CA,56.1166666,-117.8833333,748
71804199999,BUCHANS,1955-07-02,1963-07-31,null,CA,48.85,-56.833,276
71666099999,BUCTOUCHE CDA CS,2005-07-24,2021-10-04,null,CA,46.42,-64.77,36
71077499999,BUFFALO NARROWS,1979-01-31,2024-01-06,null,CA,55.841944,-108.4175,440.13
71077099999,BUFFALO NARROWS (AUT)   SASK,1977-07-01,2024-01-06,null,CA,55.8333333,-108.4333333,440
74077099999,BUFFALO NARROWS AUT,1973-01-01,1977-06-30,null,CA,55.85,-108.467,421
71839099999,BULLHORN COULEE RESEVOIR,2009-08-01,2024-01-06,null,CA,49.3,-113.3666666,1115
71016099999,BULLHORN HEADWATERS,2007-11-24,2024-01-06,null,CA,49.15,-113.55,1326
71437599999,BURLINGTON PIERS  &,1984-06-21,1991-05-15,null,CA,43.3,-79.8,78
71437099999,BURLINGTON PIERS (AUT)  ONT,1991-05-01,2024-01-06,null,CA,43.3,-79.8,77
71952599999,BURNS LAKE,1992-10-08,1995-06-05,null,CA,54.233,-125.767,704
71952499999,BURNS LAKE        &,1979-01-31,1991-06-11,null,CA,54.233,-125.767,704
72952099999,BURNS LAKE        &,1973-01-01,1977-06-30,null,CA,54.233,-125.767,704
71952025272,BURNS LAKE CAMPBELL,2005-01-01,2024-01-06,BC,CA,54.383,-125.95,714
71952099999,BURNS LAKE CAMPBELL SCIENTIFIC  BC,1977-07-01,1997-12-31,null,CA,54.3833333,-125.95,713
71967499999,BURWASH,1988-11-07,1997-12-31,null,CA,61.367,-139.033,827
71001099999,BURWASH,2005-01-01,2024-01-06,null,CA,61.371111,-139.040556,806.8
71967199999,BURWASH (AUTO8),2005-01-12,2005-02-20,null,CA,61.367,-139.05,806
72967099999,BURWASH (AUTO8),1973-01-01,1977-06-30,null,CA,61.367,-139.05,786
71284099999,BUSBY AGCM,1994-12-01,2024-01-06,null,CA,53.9166666,-113.9166666,714
71264399999,BUTTONVILLE MUNI,1986-06-20,1997-03-05,null,CA,43.862221,-79.37,198.12
71929099999,BYRON BAY AIRPORT,1957-08-01,2002-02-24,null,CA,68.75,-109.067,92
72929099999,BYRON BAY AIRPORT,1973-01-01,1977-08-02,null,CA,68.75,-109.067,109
71012099999,CADOGAN AGCM,2007-11-24,2024-01-06,null,CA,52.3333333,-110.5,690
71877099999,CALGARY INTL,1955-07-02,2024-01-06,null,CA,51.113888,-114.020278,1084.17
71393099999,CALGARY INTL CS,2004-09-21,2024-01-06,null,CA,51.1,-114,1081
72877099999,CALGARY INTNL ARPT,1973-01-01,1977-06-30,null,CA,51.1,-114.017,1084
71034799999,CALGARY SPRINGBANK,1999-01-14,2003-10-21,null,CA,51.1,-114.367,1200
71877699999,CALGARY/SPRINGBANK,1977-10-13,1997-03-10,null,CA,51.1,-114.383,1200
71688099999,CALLAGHAN VALLEY,2005-04-05,2024-01-06,null,CA,50.15,-123.1166666,884
71001199999,CALLAGHAN VALLEY (SKI JUMP TOP,2007-02-28,2010-04-13,null,CA,50.1333333,-123.1166666,936
71003199999,CALLAGHAN VALLEY(BIATHALON),2007-03-06,2010-07-08,null,CA,50.15,-123.1166666,870
71002199999,CALLAGHAN VALLEY(SKI JUMP BOTTOM),2009-01-01,2010-06-23,null,CA,50.1333333,-123.1166666,860
71918099999,CAM FOUR,1977-07-23,2023-09-05,null,CA,68.4333333,-89.716667,324.45
72925099999,CAMBRIDGE BAY ARPT,1973-01-01,1977-08-19,null,CA,69.1,-105.117,27
71288099999,CAMBRIDGE BAY GSN  NU,2004-08-03,2024-01-06,null,CA,69.1,-105.1333333,19
71925099999,CAMBRIDGE BAY UA,1934-10-01,2024-01-06,null,CA,69.13333,-105.05,25
71291099999,CAMERON FALLS (AUT)  ONT,2003-06-17,2024-01-06,null,CA,49.15,-88.3333333,233
71893699999,CAMPBELL RIVER,1977-07-01,2024-01-06,null,CA,49.950832,-125.270833,105.46
71205099999,CAMPBELL RIVER,1980-03-01,1997-11-29,null,CA,49.95,-125.267,106
72893699999,CAMPBELL RIVER ARPT,1973-01-01,1977-06-30,null,CA,49.95,-125.267,105
71716199999,CAMPBELLTON,1955-07-02,1963-07-31,null,CA,48,-66.667,8
74910399999,CAMPBELLTON CENTER,1950-01-01,1959-01-01,null,CA,48,-66.683,5
71636099999,CAMPSIE AUTO,2014-04-04,2024-01-06,null,CA,54.1305556,-111.6775,647
71254099999,CAMROSE  ALTA,1994-01-01,2024-01-06,null,CA,53.0333333,-112.8166666,739
71060399999,CAMSELL RIVER(MARS),1983-11-03,1984-01-18,null,CA,65.617,-118.117,230
71146099999,CANDLE LAKE,2002-06-01,2005-10-02,null,CA,53.733,-105.267,503
71828499999,CANIAPISCAU AIRPORT,1978-12-05,1982-10-20,null,CA,54.833,-69.867,509
71186099999,CAP- ROUGE  QUE,1994-01-21,2024-01-06,null,CA,48.3666666,-70.5333333,7
69418099999,CAPE ALLISON,1979-05-01,1979-06-01,null,CA,77.833,-100.267,0
71094099999,CAPE DYER,1955-12-08,2023-04-09,null,CA,66.65,-61.3833333,725
74911899999,CAPE HARRISON NEWFOUNDLAND DO,1943-11-01,1950-09-01,null,CA,54.766,-58.45,10
71093599999,CAPE HOOPER       &,1979-01-31,1979-08-21,null,CA,68.433,-66.783,396
74093099999,CAPE HOOPER       &,1973-01-01,1977-07-31,null,CA,68.433,-66.783,396
71975099999,CAPE MERCY,1996-02-21,1997-12-31,null,CA,64.95,-63.58,583
72891699999,CAPE MUDGE (LGT-H),1973-01-01,1977-06-30,null,CA,51.15,-121.5,1055
71064099999,CAPE PEEL WEST,1998-12-24,2023-01-03,null,CA,69.03,-107.82,165
74921699999,CAR FERRY ROSS RIVER,1944-08-13,1945-03-31,null,CA,62.183,-131.75,819
71170099999,CARBERRY CS,1994-09-01,2024-01-06,null,CA,49.9,-99.35,384
71153099999,CARDSTON  ALTA,1994-12-01,2024-01-06,null,CA,49.2,-113.2833333,1136
74912299999,CARIBOU EAST,1943-04-20,1945-07-15,null,CA,59.367,-97.383,271
71433099999,CARIBOU ISLAND (AUT)  ONT,1980-03-01,2024-01-06,null,CA,47.3333333,-85.8333333,187
69387099999,CARMACKS,1979-10-30,2002-04-17,YK,CA,62.117,-136.183,539
71039099999,CARMACKS CS,2003-06-17,2024-01-06,null,CA,62.1166666,-136.2,543
71147099999,CARMAN U OF M CS  MAN,1996-11-01,2024-01-06,null,CA,49.5,-98.0333333,268
71885199999,CARMI,1955-07-02,1963-01-31,null,CA,49.5,-119.083,1245
71818499999,CARTWRIGHT (MAN),1979-01-31,2024-01-06,null,CA,53.6833333,-57.0333333,12
71915599999,CARVEL RADAR,1981-02-20,1984-06-08,null,CA,53.57,-114.15,0
69408099999,CASSIAR,1978-10-17,1980-04-22,null,CA,59.267,-129.8,1097
71884099999,CASTLEGAR,1977-07-01,2024-01-06,null,CA,49.296389,-117.6325,494.99
72884099999,CASTLEGAR AIRPORT,1973-01-01,1977-06-30,null,CA,49.3,-117.633,495
71632199999,CENTRALIA HURON,1955-07-02,1963-07-31,null,CA,43.3,-81.517,253
71523099999,CHAMOUCHOUANE  QUE,1994-10-28,2024-01-06,null,CA,49.2666666,-73.35,304
71217099999,CHAMPION AGDM  ALTA,2002-12-12,2024-01-06,null,CA,50.2666666,-113.35,1006
71822099999,CHAPAIS,1977-07-01,2024-01-06,null,CA,49.771944,-74.528056,387.09
71824099999,CHAPAIS  QUE,2004-08-24,2024-01-06,null,CA,49.8166666,-74.9666666,381
71642099999,CHAPLEAU,1996-11-01,2024-01-06,null,CA,47.82,-83.346667,446.53
71737499999,CHAPLEAU ARPT(SAWR),1978-08-14,1997-12-31,null,CA,47.65,-83.35,448
71713499999,CHARLEVOIX,1983-08-01,2018-06-10,null,CA,47.5975,-70.223892,297.78
71319099999,CHARLEVOIX (MRX),1997-12-01,2024-01-06,null,CA,47.2833333,-70.6333333,723
71711099999,CHARLO,1977-07-01,1997-12-31,NB,CA,47.983,-66.333,40
72711099999,CHARLO AIRPORT,1973-01-01,1977-06-30,null,CA,48,-66.333,37
71315099999,CHARLO AUTO  NB,2004-08-03,2024-01-06,null,CA,47.9833333,-66.3333333,42
71706099999,CHARLOTTETOWN,1955-07-02,2024-01-06,null,CA,46.2833333,-63.1333333,48.76
72706099999,CHARLOTTETOWN ARPT,1973-01-01,1977-07-03,null,CA,46.283,-63.133,55
72717099999,CHATHAM,1973-01-01,1977-06-30,null,CA,47.017,-65.45,33
71717499999,CHATHAM (AUTO8),1985-04-05,2005-08-10,null,CA,47,-65.467,34
71398599999,CHATHAM BROWNBURG,1977-07-01,2006-07-18,null,CA,45.617,-74.417,75
71959026394,CHETICAMP CS,1957-07-01,1993-06-30,NS,CA,46.633,-60.933,44
71959099999,CHETICAMP CS,2003-06-25,2018-11-20,null,CA,46.6333333,-60.9333333,44
71034899999,CHETWYND,1999-01-14,2024-01-06,null,CA,55.687222,-121.626667,609.6
71940399999,CHETWYND AIRPORT,1982-11-11,1997-03-10,null,CA,55.7,-121.633,629
71814099999,CHEVERY  QUE,1955-07-02,2024-01-06,null,CA,50.45,-59.6333333,8
72814099999,CHEVERY (MARS),1973-01-01,1977-08-04,null,CA,50.533,-59.5,3
71822399999,CHIBOUGAMAU,1992-08-07,1992-12-10,null,CA,49.767,-74.55,387
72822099999,CHIBOUGAMAU-CHAPAIS,1973-01-01,1977-08-04,null,CA,49.817,-74.417,402
71618099999,CHURCHILL,1994-02-11,2024-01-06,null,CA,58.73906,-94.06637,29.26
71913099999,CHURCHILL A UA  MAN,1943-01-01,1997-12-31,null,CA,58.7333333,-94.05,29
72913099999,CHURCHILL AIRPORT,1973-01-01,1977-08-04,null,CA,58.75,-94.067,30
71696099999,CHURCHILL CLIMATE,2006-02-01,2024-01-06,null,CA,58.72,-94.07,29
74182099999,CHURCHILL FALLS,1973-01-01,1977-06-30,null,CA,53.55,-64.1,440
71002099999,CHURCHILL FALLS,2005-01-01,2024-01-06,null,CA,53.5666666,-64.1,439.52
71182099999,CHURCHILL FALLS,1977-07-01,1997-12-31,null,CA,53.55,-64.1,440
71522099999,CHUTES DES PASSES  QUE,1994-09-01,2024-01-06,null,CA,49.8333333,-71.1666666,398
71234099999,CLARESHOLM,1994-02-01,2024-01-06,null,CA,50,-113.6333333,1009
71875699999,CLARESHOLM (AUTO8),1992-02-19,1994-03-14,null,CA,50,-113.633,1012
71221099999,CLEARDALE AGDM  ALTA,2004-07-13,2024-01-06,null,CA,56.3,-119.7333333,630
71474099999,CLINTON,1981-06-01,1997-12-31,null,CA,51.15,-121.5,1057
71053099999,CLINTON POINT,1977-07-01,1993-08-12,null,CA,69.583,-120.8,101
71073199999,CLUFF LAKE AUTO,2005-01-01,2005-07-18,null,CA,58.383,-109.517,339
71056199999,CLUT LAKE(AUT),1957-10-03,2005-05-05,null,CA,65.6,-117.767,185
71090099999,CLYDE RIVER,1977-07-01,2024-01-06,null,CA,70.486111,-68.516667,26.51
71358099999,CLYDE RIVER CLIMATE  NU,2005-02-01,2024-01-06,null,CA,70.4833333,-68.5166666,27
71881499999,COAL VALLEY,1980-06-11,1983-06-13,null,CA,53.083,-116.817,1426
71626699999,COBOURG,1977-07-01,1980-08-09,null,CA,43.95,-78.167,78
72626699999,COBOURG,1975-08-07,1977-06-30,null,CA,43.95,-78.167,78
71431099999,COBOURG (AUT)  ONT,1977-06-11,2024-01-06,null,CA,43.95,-78.1666666,78
71120099999,COLD LAKE,1955-07-02,2024-01-06,null,CA,54.404999,-110.279444,541.02
74120099999,COLD LAKE (CAN-MIL),1957-01-01,1977-06-30,null,CA,54.417,-110.283,541
71270099999,COLLINGWOOD  ONT,1994-12-01,2023-06-22,null,CA,44.5,-80.2166666,180
71432499999,COLLINGWOOD (AUT8)&,1993-08-29,1994-12-20,null,CA,44.5,-80.217,180
71075099999,COLLINS BAY  SASK,1977-07-01,2024-01-06,null,CA,58.1833333,-103.7,492
74075099999,COLLINS BAY (AUTO8),1973-01-04,1977-06-30,null,CA,58.183,-103.683,490
71075499999,COLLINS BAY (AUTO8),1979-01-31,1979-01-31,null,CA,58.183,-103.683,490
71055099999,COLVILLE LAKE  NWT,1993-07-01,2024-01-06,null,CA,67.0213889,-126.123055,259
74193099999,COMFORT COVE,1973-01-01,1977-06-30,null,CA,49.267,-54.883,96
71806499999,CONNE RIVER (AUT),1992-05-05,1996-01-03,null,CA,48.17,-55.48,183
71223099999,CONSORT AGDM  ALTA,2004-08-24,2024-01-06,null,CA,51.9333333,-110.7,772
71062499999,CONTWOYTO,1979-01-31,1979-01-31,null,CA,65.483,-110.367,451
71877899999,COP UPPER,1992-08-07,1993-03-30,null,CA,51.083,-114.217,1235
71235099999,COP UPPER  ALTA,1993-06-07,2024-01-06,null,CA,51.0666666,-114.2166666,1235
71710199999,COPPER LAKE,1955-07-02,1962-02-28,null,CA,45.383,-61.967,96
71915099999,CORAL HARBOUR,1943-03-01,2024-01-06,null,CA,64.193333,-83.359444,64
72915099999,CORAL HARBOUR ARPT,1973-01-01,1977-08-04,null,CA,64.2,-83.367,64
71367099999,CORMACK RCS,2004-08-24,2024-01-06,null,CA,49.31667,-57.4,817
71367099999,CORMACK RCS,2004-08-24,2024-01-06,null,CA,49.31667,-57.4,817
71973099999,CORNER BROOK,2008-04-01,2024-01-06,null,CA,48.9333333,-57.9166666,152
71738699999,CORNER BROOK,2009-08-01,2024-01-06,null,CA,48.9333333,-57.9166666,152
71873099999,CORONATION,1955-07-02,1997-12-31,null,CA,52.075001,-111.445278,790.95
71873599999,CORONATION (AUT),1977-07-01,2008-12-31,null,CA,52.067,-111.467,791
72873099999,CORONATION (MARS) &,1973-01-01,1977-06-30,null,CA,52.1,-111.45,797
71318099999,CORONATION CLIMATE  ALTA,2004-08-03,2024-01-06,null,CA,52.0666666,-111.4333333,791
72873599999,CORONATION(AUT),1977-06-08,1977-06-30,null,CA,52.1,-111.45,797
72624599999,COTE-STE-CATH MOT,1973-01-01,1977-06-30,null,CA,43.75,-79.483,198
71624599999,COTE-STE-CATHERINE,1982-01-03,1982-08-04,null,CA,45.42,-73.57,17
71439099999,COVE ISLAND (AUT)  ONT,1985-09-10,2021-05-11,null,CA,45.3333333,-81.7333333,181
71013099999,CRAIGMYLE AGCM,2007-11-24,2024-01-06,null,CA,51.7666666,-112.25,845
71132199999,CRANBERRY PORTAGE,1957-10-01,1963-07-31,null,CA,54.617,-101.35,306
71880099999,CRANBROOK A,1977-07-01,2024-01-06,null,CA,49.6166666,-115.7833333,939.39
72880099999,CRANBROOK AIRPORT,1973-01-01,1977-06-30,null,CA,49.6,-115.783,939
71660099999,CRANBROOK AIRPORT AUTO,2014-04-04,2024-01-06,null,CA,49.6166666,-115.7833333,929.69
72920099999,CREE LAKE (MAPS),1973-01-01,1977-07-30,null,CA,57.35,-107.133,499
71920499999,CREE LAKE (MAPS),1979-01-31,1979-06-04,null,CA,57.35,-107.133,499
71920199999,CREE LAKE METEOROLOGICAL AERONAU,1955-07-02,1963-07-31,null,CA,57.35,-107.13,495
71884199999,CRESCENT VALLEY,1955-07-02,1963-07-31,null,CA,49.45,-117.567,610
71380099999,CRESTOMERE AGCM,2008-07-21,2024-01-06,null,CA,52.7166666,-113.9,855
71884499999,CRESTON (AUTO8)   &,1993-05-20,1995-04-14,null,CA,49.083,-116.5,569
71770099999,CRESTON CAMPBELL SCIENTIFIC  BC,1995-04-23,2024-01-06,null,CA,49.0833333,-116.5,646
99999964757,CRN ON EGBERT 1 W,2004-07-15,2024-01-07,ON,CA,44.233,-79.781,246
71879599999,CROWSNEST,1992-08-07,1993-03-30,null,CA,49.633,-114.483,1303
71236099999,CROWSNEST  ALTA,1993-06-07,2024-01-06,null,CA,49.6166666,-114.4833333,1303
74090099999,CYLDE AIRPORT     &,1945-05-01,1977-06-30,null,CA,70.45,-68.55,2
71090399999,CYLDE AIRPORT     &,1988-02-01,1991-01-22,null,CA,70.5,-68.5,26
71239099999,CYORESS RIVER RCS,1993-10-15,2024-01-06,null,CA,49.55,-99.0666666,374
71004099999,CYPRESS BOWL FREESTYLE,2007-03-01,2010-06-23,null,CA,49.4,-123.2,969
71689199999,CYPRESS BOWL NORTH,2007-02-28,2010-06-17,null,CA,49.4,-123.2,953
71562099999,CYPRESS BOWL SNOWBOARD,2010-01-29,2010-08-05,null,CA,49.3833333,-123.2,1180
71693099999,CYPRESS BOWL SOUTH,2007-04-01,2010-03-31,null,CA,49.3833333,-123.2,886
71139099999,CYPRESS HILLS PARK  SASK,1992-05-05,2024-01-06,null,CA,49.65,-109.5166666,1271
71292999999,CYPRUS LAKE CS,2005-01-01,2009-04-14,null,CA,45.233,-81.533,190
71185499999,DANIEL'S HARBOUR,1979-01-31,1995-06-05,null,CA,50.233,-57.583,24
74185099999,DANIELS HARBOUR,1973-01-01,1977-06-30,null,CA,50.233,-57.583,24
71185099999,DANIELS HARBOUR   NFLD,1955-07-02,1997-12-31,null,CA,50.2333333,-57.5833333,19
71340099999,DAPP AGDM  ALTA,2004-08-24,2021-11-08,null,CA,54.3166666,-113.95,614
71626199999,DARLINGTON,1977-07-01,1980-11-21,null,CA,43.867,-78.783,93
72626199999,DARLINGTON        &,1975-06-01,1977-06-30,null,CA,44.233,-78.35,190
71855399999,DAUPHIN (AUTOB),1991-01-09,1991-03-15,null,CA,51.1,-100.05,305
72855099999,DAUPHIN AIRPORT,1973-01-01,1977-06-30,null,CA,51.1,-100.05,305
71855099999,DAUPHIN AIRPORT,1955-07-02,1997-12-31,null,CA,51.1,-100.05,305
71036099999,DAUPHIN BARKER,2003-06-17,2024-01-06,null,CA,51.100834,-100.0525,304.19
71550099999,DAUPHIN CS  MAN,1996-11-01,2024-01-06,null,CA,51.1,-100.05,305
71966499999,DAWSON,1988-02-26,2024-01-06,null,CA,64.05,-139.13,370
72966099999,DAWSON AIRPORT,1973-01-01,1977-06-30,null,CA,64.05,-139.133,369
71966099999,DAWSON CITY,1934-01-01,2024-01-06,null,CA,64.043056,-139.127778,370.33
71056399999,DAWSON CREEK,1943-05-01,2024-01-06,null,CA,55.733,-120.183,671
71056399999,DAWSON CREEK,1943-05-01,2024-01-06,null,CA,55.733,-120.183,671
74056199999,DAWSON CREEK      &,1973-01-01,1977-06-30,null,CA,55.75,-120.183,655
71471099999,DAWSON CREEK LWIS,2008-01-01,2023-03-14,null,CA,55.7333333,-120.1666666,655
71843699999,DE WEMINDJI,2004-05-10,2023-12-19,null,CA,53.0166667,-78.8333333,15
71021099999,DEADMEN VALLEY  NWT,2004-07-13,2024-01-06,null,CA,61.25,-124.4666666,283
71686099999,DEASE LAKE,2005-01-01,2024-01-06,null,CA,58.4166666,-130.0333333,802.8
71958099999,DEASE LAKE,1944-09-16,1997-12-31,null,CA,58.4333333,-130.0166666,807
71958499999,DEASE LAKE,1979-01-31,1979-06-04,null,CA,58.417,-130,815
72958099999,DEASE LAKE,1973-01-01,1977-06-30,null,CA,58.417,-130,815
71056499999,DEASE LAKE,2004-09-01,2008-12-31,null,CA,58.417,-130.033,813
71222099999,DEASE LAKE (AUT),1993-08-29,2024-01-06,null,CA,58.4333333,-130.0333333,802
71317099999,DEBERT,2004-09-21,2024-01-06,null,CA,45.4166666,-63.4666666,38.6
71809099999,DEER LAKE A,1977-07-01,2024-01-06,null,CA,49.2166666,-57.4,21.94
71840099999,DEERWOOD RCS  MAN,2004-11-14,2024-01-06,null,CA,49.4,-98.3166666,341
71014099999,DELBURNE AGCM,2008-04-01,2024-01-06,null,CA,52.1833333,-113.1833333,889
71842699999,DELHI,2004-05-10,2008-12-31,null,CA,42.867,-80.55,232
71573099999,DELHI CS  ONT,2001-09-16,2024-01-06,null,CA,42.8666666,-80.55,232
71035899999,DELINE,1999-01-14,2024-01-06,null,CA,65.210556,-123.435833,218
71503099999,DELINE CS  NWT,1986-11-01,2024-01-06,null,CA,65.2166666,-123.4333333,213
71042099999,DELTA BURNS BOG,2001-09-16,2024-01-06,null,CA,49.1333333,-123,3
71563099999,DELTA MARCH CS,2001-09-16,2011-05-18,null,CA,50.1833333,-98.3833333,248
71389099999,DESCHAMBAULT CS  QUE,2001-08-02,2024-01-06,null,CA,46.6833333,-71.9666666,61
74092099999,DEWAR LAKES,1973-01-01,1977-07-07,null,CA,68.65,-71.233,515
71092099999,DEWAR LAKES,1977-07-01,2023-09-05,null,CA,68.65,-71.17,518
71092499999,DEWAR LAKES,1979-01-31,1982-09-19,null,CA,68.65,-71.233,515
71359099999,DEWBERRY AGCM,2008-04-01,2024-01-06,null,CA,53.6666666,-110.5833333,616
71601399999,DIGBY,1990-01-11,1996-06-02,null,CA,44.545555,-65.788889,152.09
71038099999,DOAKTOWN AUTO RCS,2004-09-14,2024-01-06,null,CA,46.6,-66.0166666,44.5
71038099999,DOAKTOWN AUTO RCS,2004-09-14,2024-01-06,null,CA,46.6,-66.0166666,44.5
71111199999,DOG CREEK,1955-07-02,1960-11-30,null,CA,51.633,-122.25,1027
69403099999,DRAKE POINT,1978-10-13,1979-05-18,null,CA,76.467,-108.767,12
71873699999,DRUMHELLER EAST,1991-08-01,2008-12-31,null,CA,51.433,-112.667,678
71237099999,DRUMHELLER EAST  ALTA,2001-09-16,2024-01-06,null,CA,51.4333333,-112.6666666,678
69386099999,DRURY CREEK,1979-09-07,1980-12-24,null,CA,62.2,-134.383,609
71847099999,DRYDEN A  ONT,2001-09-12,2004-12-31,null,CA,49.8333333,-92.75,413
72842599999,DRYDEN AIRPORT,1973-01-01,1977-06-30,null,CA,49.833,-92.75,411
71527099999,DRYDEN RGNL,1962-01-01,2024-01-06,null,CA,49.831667,-92.744167,412.69
71842599999,DRYDEN RGNL,1982-01-01,1997-12-31,ON,CA,49.833,-92.733,413
71499999999,DUBAWNT LAKE,2005-01-01,2010-07-31,null,CA,63.233,-101.767,237
69394099999,DUNDAS PENINSULA,1979-07-20,1985-04-11,null,CA,74.5,-113.383,0
71414099999,DUPRE AGCM,1988-06-22,2024-01-06,null,CA,54.3666666,-110.8666666,556
71461099999,EAGLESHAM AGCM,1984-09-21,2023-10-12,null,CA,55.8,-117.8833333,563
71295099999,EAR FALLS (AUT),2003-06-17,2024-01-06,null,CA,50.6333333,-93.2166666,363
71735099999,EARLTON,1955-07-02,1997-12-31,null,CA,47.7,-79.85,243
72735099999,EARLTON AIRPORT,1973-01-01,1977-07-04,null,CA,47.7,-79.85,244
71213099999,EARLTON CLIMATE,2008-12-01,2024-01-06,null,CA,47.6833333,-79.8333333,243.4
71131099999,EASTEND CYPRESS (AUT)  SASK,1977-07-01,2024-01-06,null,CA,49.4333333,-108.9833333,1080
74131099999,EASTEND CYPRESS AUT,1977-01-01,1977-06-30,null,CA,49.433,-108.983,1079
71844399999,EASTMAIN RIVER,2004-07-13,2024-01-05,null,CA,52.2333333,-78.5166667,7
71836499999,EASTMAIN RIVER ARPT,1985-11-06,1997-02-24,null,CA,52.233,-78.517,8
71360099999,EDGERTON AGCM,2007-11-24,2024-01-06,null,CA,52.7666666,-110.4166666,649
71879099999,EDMONTON CITY CENTRE,1950-01-01,1997-12-31,null,CA,53.5725,-113.520556,670.56
71155099999,EDMONTON INTERNATIONAL CS  ALTA,2001-09-16,2024-01-06,null,CA,53.3,-113.6,715
71123099999,EDMONTON INTL,1960-11-14,2024-01-06,null,CA,53.309723,-113.579722,723.29
74123099999,EDMONTON INTL ARPT,1973-01-01,1977-06-30,null,CA,53.317,-113.583,723
72879099999,EDMONTON MUNICIPAL,1973-01-01,1977-06-30,null,CA,53.567,-113.517,671
71157099999,EDMONTON MUNICIPAL CR10  ALTA,2001-09-16,2024-01-06,null,CA,53.5666666,-113.5166666,671
71119099999,EDMONTON STONY PLAIN ALTA,1994-03-14,1997-12-31,null,CA,53.55,-114.11,766
71127099999,EDMONTON STONY PLAIN CS,1977-07-05,2024-01-06,null,CA,53.55,-114.116666,766
71124099999,EDMONTON STONY PLAIN CS  ALTA,1982-09-01,1997-01-30,null,CA,53.55,-114.1,766
71123399999,EDMONTON VILLENEUVE,1985-01-02,2024-01-06,null,CA,53.6675,-113.854444,687.32
71121099999,EDMONTON/NAMAO(MIL),1944-10-10,2023-12-13,null,CA,53.6666667,-113.4666667,688
74121099999,EDMONTON/NAMAO(MIL),1973-01-01,1977-06-30,null,CA,53.667,-113.467,688
71590099999,EDMUNSTON,2004-08-10,2024-01-06,null,CA,47.42,-68.32,154
71167099999,EDSON,1994-03-01,2024-01-06,null,CA,53.5666666,-116.45,926
71881099999,EDSON,1960-02-02,2024-01-06,null,CA,53.578888,-116.465,926.89
71881399999,EDSON (READAC),1991-08-22,1992-12-10,null,CA,53.583,-116.483,925
71881399999,EDSON (READAC),1991-08-22,1992-12-10,null,CA,53.583,-116.483,925
72881099999,EDSON AIRPORT,1973-01-01,1977-06-30,null,CA,53.583,-116.45,921
71156099999,EDSON CLIMATE,2001-07-16,2024-01-06,null,CA,53.5833333,-116.4666666,927
72630099999,EGBERT,1973-01-01,2004-08-20,null,CA,44.233,-79.783,251
71630399999,EGBERT (MAPS),1991-02-07,1993-08-31,null,CA,44.233,-79.783,251
71296099999,EGBERT CS  ONT,2004-08-24,2024-01-06,null,CA,44.2333333,-79.7833333,251
71404099999,EGG ISLAND  ALTA,2003-03-30,2024-01-04,null,CA,58.9666666,-110.4333333,215
71035699999,EKATI,1999-01-14,2020-03-27,null,CA,64.7,-110.6166667,469
71834599999,EKWAN RIVER (AUTO8),1994-08-30,1995-04-25,null,CA,53.817,-84.917,96
71834599999,EKWAN RIVER (AUTO8),1994-08-30,1995-04-25,null,CA,53.817,-84.917,96
71866599999,ELBOW,1977-07-01,1983-05-01,null,CA,51.133,-106.583,594
71450399999,ELBOW (MARS)      &,1983-12-22,1990-10-12,null,CA,51.133,-106.583,594
72866599999,ELBOW (MARS)      &,1973-01-01,1977-06-30,null,CA,51.133,-106.583,594
71450099999,ELBOW CS  SASK,1981-01-01,2024-01-06,null,CA,51.1333333,-106.5833333,595
71238099999,ELK ISLAND NAT PARK  ALTA,1993-07-01,2024-01-06,null,CA,53.6833333,-112.8666666,713.7
71085199999,ELLICE RIVER AUTOMATED REPORTING,2005-09-27,2005-09-27,null,CA,67.7,-104.47,42
71733499999,ELLIOT LAKE MUNI,1978-01-11,1997-12-31,null,CA,46.351389,-82.561389,331.31
71352099999,ELORA RCS  ONT,2004-06-08,2024-01-06,null,CA,43.65,-80.4166666,376
71075199999,EMBARRAS,1955-07-02,1962-09-21,null,CA,58.2,-111.383,236
74918799999,EMBARRAS ALBERTA DOT APT,1943-01-08,1944-11-24,null,CA,58.199,-111.383,236
71518099999,ENCHANT AGDM  ALTA,2004-09-21,2024-01-06,null,CA,50.1833333,-112.4333333,801
71923099999,ENNADAI LAKE (AUT)  NU,1955-07-02,2024-01-06,null,CA,61.1166666,-100.8833333,353
72923099999,ENNADAI LAKE (MAPS),1973-01-01,1977-06-30,null,CA,61.133,-100.917,323
71923499999,ENNADI LAKE,1979-01-31,1979-06-04,null,CA,61.133,-100.917,323
71465099999,ERIEAU (AUT)  ONT,1986-01-17,2023-06-07,null,CA,42.25,-81.9,178
71798099999,ESQUIMALT HARBOUR,2003-06-17,2023-11-26,null,CA,48.43,-123.43,3
71202699999,ESQUIMALT METOC,1994-01-03,1995-06-05,null,CA,48.433,-123.433,12
72894099999,ESTEVAN PT. (MARS),1973-01-01,1977-06-30,null,CA,49.383,-126.533,5
71872499999,ESTHER 1,1992-10-08,1993-03-30,null,CA,51.667,-110.2,707
71240099999,ESTHER 1  ALTA,1993-06-07,2024-01-06,null,CA,51.6666666,-110.2,707
71409099999,ETZICOM AGCM,2008-04-01,2024-01-06,null,CA,49.55,-111.05,845
72917099999,EUREKA,1973-01-01,1977-08-04,null,CA,80,-85.933,9
71917499999,EUREKA,1992-04-27,1994-07-14,NT,CA,79.983,-85.8,78
71917099999,EUREKA,1947-05-01,2024-01-06,null,CA,79.9833333,-85.9333333,10
71481099999,EVANSBURG2 AGCM AB,1986-09-16,2024-01-06,null,CA,53.5730556,-115.123611,819
71942199999,FAIRVIEW          &,1955-07-02,1963-07-31,null,CA,56.083,-118.433,655
71347099999,FAIRVIEW AGDM  ALTA,2004-05-18,2024-01-06,null,CA,56.0666666,-118.4333333,655
71949399999,FARO,1984-02-03,2024-01-06,null,CA,62.2075,-133.375833,716.58
71949099999,FARO (AUT)  YT,1977-07-01,2024-01-06,null,CA,62.2333333,-133.35,717
72949099999,FARO (MARS),1975-01-09,1977-06-30,null,CA,62.233,-133.367,694
71949599999,FARO (MARS),1980-04-23,1981-06-24,null,CA,62.233,-133.367,694
71964499999,FARO A,1981-11-24,1984-01-18,null,CA,62.217,-133.367,717
71673099999,FERINTOSH AGCM,2008-04-01,2024-01-06,null,CA,52.75,-112.85,795
71535099999,FINCASTLE AGDM  ALTA,2004-09-21,2024-01-06,null,CA,49.8,-112.0333333,833
74921099999,FISH LAKE,1943-04-20,1945-08-18,null,CA,60.633,-132.05,867
71442099999,FISHER BRANCH (AUT)  MAN,1985-12-01,2024-01-06,null,CA,51.0833333,-97.55,253
71141599999,FISHER BRANCH(AUTO),1986-03-01,1986-04-25,null,CA,51.083,-97.55,253
71857599999,FLIN FLON,1943-03-19,1997-12-31,null,CA,54.667,-101.683,312
71954026394,FLIN FLON,1995-01-01,2024-01-06,MB,CA,54.683,-101.683,304
71037699999,FLIN FLON,2005-01-01,2024-01-06,null,CA,54.678055,-101.681667,303.88
71857699999,FLIN FLON (AUTO8),1988-12-09,1995-06-05,null,CA,54.683,-101.7,304
72857599999,FLIN FLON AIRPORT,1973-01-01,1977-06-30,null,CA,54.683,-101.683,304
71954099999,FLON FLON,2000-01-01,2004-12-31,null,CA,54.6833333,-101.6833333,303.9
71225099999,FOREMOST AGDM  ALTA,2004-08-24,2024-01-06,null,CA,49.4833333,-111.4833333,881
71674099999,FORESTBURG AGCM,2007-11-24,2024-01-06,null,CA,52.55,-112.1166666,721
71212099999,FORET MONTMORENCY RCS  QUE,2004-10-05,2024-01-06,null,CA,47.3166666,-71.1333333,673
71483099999,FORT ASSINIBOINE AGCM,1987-07-10,2024-01-06,null,CA,54.4,-114.7666666,676
71305099999,FORT CHIPEWYAN,2004-09-21,2013-10-31,null,CA,58.7666666,-111.1166666,238
72933099999,FORT CHIPEWYAN ARPT,1973-01-01,1977-06-30,null,CA,58.767,-111.117,232
71933499999,FORT CHIPEWYAN AUTOMATED REPORTI,1991-08-01,1993-10-14,null,CA,58.77,-111.13,232
71933499999,FORT CHIPEWYAN AUTOMATED REPORTI,1991-08-01,1993-10-14,null,CA,58.77,-111.13,232
71056099999,FORT CHIPEWYAN RCS,1993-07-01,2024-01-06,null,CA,58.7666666,-111.1166666,238
71962099999,FORT FRANCES RCS,2008-04-29,2024-01-06,null,CA,48.65,-93.4333333,342
71946899999,FORT FRANKLIN ARPT,1988-04-21,1997-02-24,null,CA,65.183,-123.417,0
71043599999,FORT GOOD HOPE,1934-01-01,2024-01-06,null,CA,66.240833,-128.650833,81.68
74043599999,FORT GOOD HOPE ARPT,1973-01-01,1977-06-30,null,CA,66.267,-128.633,53
71491099999,FORT GOOD HOPE CS,2001-09-16,2024-01-06,null,CA,66.2333333,-128.65,82
71035599999,FORT LIARD,1999-01-14,2024-01-05,null,CA,60.2333333,-123.4833333,215
71945799999,FORT LIARD,1977-07-01,1978-12-29,null,CA,60.233,-123.467,214
72945799999,FORT LIARD,1973-08-30,1977-06-28,null,CA,60.233,-123.467,213
71497099999,FORT LIARD  NWT,1992-02-19,2024-01-06,null,CA,60.2333333,-123.4666666,213
71945899999,FORT LIARD AIRPORT,1983-12-01,1997-02-24,null,CA,60.233,-123.467,213
71789099999,FORT MACLEOD AGCM,2008-04-01,2024-01-06,null,CA,49.7833333,-113.3833333,978
71689099999,FORT MCMURRAY AIRPORT,2005-01-01,2024-01-06,null,CA,56.65,-111.2166666,369.11
72932099999,FORT MCMURRAY ARPT,1973-01-01,1977-06-30,null,CA,56.65,-111.217,369
71932099999,FORT MCMURRAY AWOS ARPT,1943-02-01,1997-12-31,null,CA,56.65,-111.2166666,369
71585099999,FORT MCMURRAY CS  ALTA,2001-08-25,2024-01-06,null,CA,56.65,-111.2166666,369
71957499999,FORT MCPHERSON,1978-12-05,2024-01-06,null,CA,67.4075,-134.860556,35.35
71945099999,FORT NELSON,1942-02-20,2024-01-06,null,CA,58.8333333,-122.6,381.91
72945099999,FORT NELSON AIRPORT,1973-01-01,1977-06-30,null,CA,58.833,-122.583,382
71957699999,FORT NORMAN AIRPORT,1934-01-01,2024-01-06,null,CA,64.9166667,-125.5666667,98
71946799999,FORT PROVIDENCE,1943-02-04,1946-12-01,null,CA,61.317,-117.6,162
71087099999,FORT PROVIDENCE  NWT,1993-06-15,2024-01-06,null,CA,61.3166666,-117.6,162
71073699999,FORT RELIANCE     &,1979-01-31,1979-01-31,null,CA,62.717,-109.167,160
74073099999,FORT RELIANCE     &,1973-01-01,1977-06-30,null,CA,62.717,-109.167,160
71160099999,FORT RELIANCE (AUT)  NWT,1993-07-01,2024-01-06,null,CA,62.7,-109.15,168
71073399999,FORT RELIANCE NWT,1991-02-04,1993-06-15,null,CA,62.717,-109.183,168
71063399999,FORT RESOLUTION,1934-01-01,2024-01-05,null,CA,61.180832,-113.689722,160.32
74063099999,FORT RESOLUTION,1943-03-01,1977-06-30,null,CA,61.183,-113.683,164
71629099999,FORT ROSS,1980-10-15,2024-01-06,null,CA,72.0166666,-94.2,10
71099099999,FORT SEVERN,2006-10-30,2024-01-06,null,CA,56.0166666,-87.6833333,16
71946099999,FORT SIMPSON,1934-01-01,2024-01-06,null,CA,61.760277,-121.236667,169.16
72946099999,FORT SIMPSON ARPT,1973-01-01,1977-06-30,null,CA,61.75,-121.233,177
71365099999,FORT SIMPSON CLIMATE  NWT,2004-06-08,2024-01-06,null,CA,61.75,-121.2333333,168
72934099999,FORT SMITH AIRPORT,1973-01-01,1977-06-30,null,CA,60.017,-111.967,203
71362099999,FORT SMITH CLIMATE  NWT,2004-08-03,2024-01-06,null,CA,60.0166666,-111.9166666,203
71934099999,FORT SMITH UA - NT,1934-01-01,2024-01-06,null,CA,60.0166666,-111.9166666,204
71933099999,FORT ST JAMES AUTO,1977-07-01,2024-01-06,null,CA,54.45,-124.2833333,685.5
71933099999,FORT ST JAMES AUTO,1977-07-01,2024-01-06,null,CA,54.45,-124.2833333,685.5
71943099999,FORT ST JOHN,1942-07-01,2024-01-06,null,CA,56.238056,-120.740278,694.94
71899499999,FORT ST. JAMES ARPT,1988-03-18,1989-05-05,null,CA,54.417,-124.25,716
71899499999,FORT ST. JAMES ARPT,1988-03-18,1989-05-05,null,CA,54.417,-124.25,716
72943099999,FORT ST. JOHN ARPT,1973-01-01,1977-06-30,null,CA,56.233,-120.733,695
71024099999,FORT VERMILION,2003-06-17,2024-01-06,null,CA,58.3833333,-116.0333333,289
71937399999,FRANCES LAKE,1941-10-01,1948-01-01,null,CA,61.283,-129.4,739
74919899999,FRASER NORTHEAST,1943-12-01,1946-01-31,null,CA,59.767,-134.983,884
71668099999,FREDERICKTON CDA CS,2005-07-24,2024-01-06,null,CA,45.92,-66.6,35
71700099999,FREDERICTON,1955-07-02,2024-01-06,null,CA,45.8666666,-66.5333333,20.72
72700099999,FREDERICTON AIRPORT,1973-01-01,1977-07-02,null,CA,45.867,-66.533,20
71644599999,FREDERICTON AQUATIC CENTRE C/S,2005-05-24,2015-11-04,null,CA,45.97,-66.65,8
71373099999,FRELIGHSBURG  QUE,1992-05-05,2024-01-06,null,CA,45.05,-72.85,152
72946699999,FT PROVIDENCE,1973-10-03,1973-10-18,null,CA,61.333,-117.667,159
71086099999,FT. PROVIDENCE NWT,2004-11-01,2005-06-19,null,CA,61.6666666,-117.25,159
71191099999,FUNDY PARK CS,2003-06-20,2023-12-22,null,CA,45.6,-64.95,43
72701099999,GAGETOWN  (CAN-MIL),1975-06-02,1977-06-30,null,CA,45.833,-66.433,51
71701099999,GAGETOWN  (CAN-MIL),1977-07-04,2023-12-12,null,CA,45.8333333,-66.4333333,51
71824199999,GAGNON,1977-10-06,1985-10-10,null,CA,51.95,-68.133,566
71824199999,GAGNON,1977-10-06,1985-10-10,null,CA,51.95,-68.133,566
72824199999,GAGNON,1975-05-15,1977-05-31,null,CA,51.95,-68.133,566
74919999999,GALBRAITH EAST,1945-03-04,1945-08-18,null,CA,59.5,-131.767,1021
71742099999,GANDER AIRPORT CS,2005-07-24,2024-01-06,null,CA,48.93,-54.57,151
71803099999,GANDER INTL,1941-06-30,2024-01-06,null,CA,48.936944,-54.568056,151.18
72803099999,GANDER INTL AIRPORT,1973-01-01,1977-08-15,null,CA,48.95,-54.567,150
71253099999,GARDEN RIVER  ALTA,1995-04-23,2024-01-06,null,CA,58.7,-113.8666666,241
71189599999,GASPE,1977-07-01,1977-09-13,null,CA,48.767,-64.483,33
71188099999,GASPE,1977-09-14,2024-01-06,null,CA,48.775278,-64.478611,32.91
74189599999,GASPE AIRPORT     &,1973-01-01,1977-06-30,null,CA,48.767,-64.483,33
71627999999,GATINEAU,1980-04-23,2024-01-06,null,CA,45.521694,-75.563589,64.31
71445399999,GEORGE ISL (MAPS) &,1988-01-05,1988-03-26,null,CA,52.8,-97.617,223
71445099999,GEORGE ISLAND (AUT)  MAN,1984-09-21,2024-01-06,null,CA,52.8166666,-97.6,223
99598099999,GEORGIAN BAY,1994-04-04,1997-07-10,null,CA,45.54,-81.01,180
71834499999,GERALDTON AIRPORT &,1982-01-01,1983-04-01,null,CA,49.7,-86.95,331
72834099999,GERALDTON AIRPORT &,1973-01-01,1977-06-30,null,CA,49.7,-86.95,331
71834099999,GERALDTON GREENSTONE REGIONAL,1982-01-01,2024-01-06,null,CA,49.778332,-86.939445,348.69
72941099999,GERMANSEN LANDING,1973-01-01,1977-08-18,null,CA,55.783,-124.7,746
71037799999,GILLAM,2005-02-15,2021-03-25,null,CA,56.37,-94.7,145
71912399999,GILLAM (AUTOB),1988-12-09,1995-06-05,null,CA,56.367,-94.7,145
72912099999,GILLAM AIRPORT,1973-01-01,1977-06-30,null,CA,56.35,-94.7,144
71912099999,GILLAM AIRPORT,1943-03-25,2024-01-06,null,CA,56.35,-94.7166666,145
71791099999,GILT EDGE NORTH AGCM,2007-11-24,2024-01-06,null,CA,53.0666666,-110.6166666,647
72856099999,GIMLI,1973-01-01,1977-06-30,null,CA,50.617,-96.983,230
71856499999,GIMLI (MAN),1979-01-31,1979-06-04,null,CA,50.633,-97.05,230
71748099999,GIMLI CLIMATE,1977-07-01,2024-01-06,null,CA,50.6333333,-97.05,230
71577099999,GIMLI HARBOUR CS  MAN,2001-09-16,2024-01-06,null,CA,50.6166666,-96.9666666,217
71856099999,GIMLI INDUSTRIAL,1950-01-01,1997-12-31,null,CA,50.617,-97.033,232
71856099999,GIMLI INDUSTRIAL,1950-01-01,1997-12-31,null,CA,50.617,-97.033,232
72927099999,GLADMAN POINT ARPT,1973-01-01,1977-08-17,null,CA,68.667,-97.8,23
71927199999,GLADMAN POINT ARPT,2005-06-03,2005-07-26,null,CA,68.667,-97.8,14
71498099999,GLEICHEN AGCM,1990-11-04,2024-01-06,null,CA,50.9333333,-112.9333333,907
71500099999,GLENEVIS AGCM,1986-02-05,2024-01-06,null,CA,53.8166666,-114.5333333,670
71885099999,GLENWOOD,2007-11-24,2024-01-06,null,CA,49.3333333,-113.5166666,1074
72631599999,GODERICH,1973-01-02,1977-06-30,null,CA,43.767,-81.7,213
71631599999,GODERICH,1977-07-01,1980-10-31,null,CA,43.767,-81.7,213
71261099999,GODERICH  ONT,1981-10-26,2024-01-06,null,CA,43.7666666,-81.7166666,214
71631699999,GODERICH (AUTO8),1981-11-24,1983-04-05,null,CA,43.767,-81.7,213
71035499999,GOLDEN,1999-01-14,2024-01-06,null,CA,51.299167,-116.982222,784.86
71877599999,GOLDEN ARPT,1977-07-01,1997-02-24,null,CA,51.3,-116.967,787
72877599999,GOLDEN ARPT,1973-01-02,1977-06-30,null,CA,51.3,-116.967,787
72816099999,GOOSE BAY AIRPORT,1973-01-01,1977-07-30,null,CA,53.317,-60.417,46
71816099999,GOOSE BAY UA,1942-03-21,2024-01-06,null,CA,53.3166666,-60.4166666,36
72733099999,GORE BAY AIRPORT,1973-01-01,1977-06-30,null,CA,45.883,-82.567,193
71956099999,GORE BAY CLIMATE,1977-07-01,2024-01-06,null,CA,45.8833333,-82.5666666,194
71036799999,GRANBY,2004-09-21,2024-01-06,null,CA,45.367,-72.767,86
71597199999,GRAND ETANG,2005-01-01,2024-01-06,null,CA,46.55,-61.05,13
71858099999,GRAND RAPIDS (AUT),1977-07-01,2024-01-06,null,CA,53.1833333,-99.2666666,223
72858099999,GRAND RAPIDS (MARS),1973-01-01,1977-06-30,null,CA,53.183,-99.267,221
72940099999,GRANDE PRAIRE ARPT,1973-01-01,1977-06-30,null,CA,55.183,-118.883,669
71940099999,GRANDE PRAIRIE,1955-07-02,2024-01-06,null,CA,55.179722,-118.885,669.03
71919599999,GRANT (AUT),1985-03-03,1989-02-15,null,CA,82.5,-65.08,1242
71788099999,GRASSY LAKE,2007-06-05,2024-01-06,null,CA,49.8666666,-111.7333333,783
71635399999,GREAT BEND (MAPS),1986-11-20,1987-12-04,null,CA,43.333,-81.733,190
71462099999,GREAT DUCK ISLAND,1985-02-08,2021-05-12,null,CA,45.6333333,-82.9666667,183
71570099999,GREAT FALL CLIMO,2005-02-18,2024-01-06,null,CA,50.5222222,-95.9772222,253
71705099999,GREATER MONCTON INTL,1942-01-01,2024-01-06,null,CA,46.112221,-64.678611,70.71
71397099999,GREENWOOD,1955-07-02,2024-01-06,null,CA,44.984444,-64.916944,28.04
74397099999,GREENWOOD (CAN-MIL),1954-01-01,1977-06-30,null,CA,44.983,-64.917,28
71833099999,GUELPH TURFGRASS,2007-02-28,2022-04-12,null,CA,43.55,-80.2166666,325
71967699999,HAINES JUNCTION,1943-11-01,1985-05-24,null,CA,60.783,-137.55,655
72967699999,HAINES JUNCTION,1974-01-01,1977-06-30,null,CA,60.767,-137.583,599
71967799999,HAINES JUNCTION,1979-01-31,1979-08-18,null,CA,60.767,-137.583,599
71505099999,HAINES JUNCTION,1991-11-06,2024-01-06,null,CA,60.7666666,-137.5833333,595
71982199999,HALDANE RIVER,2005-02-12,2007-03-07,null,CA,67.07,-121.1,243
71395099999,HALIFAX INTL,1960-07-01,2024-01-06,null,CA,44.880833,-63.50861,145.38
71395199999,HALIFAX INTL,1977-07-01,1979-08-21,null,CA,44.883,-63.517,145
74395199999,HALIFAX INTL      &,1975-05-15,1977-06-30,null,CA,44.883,-63.517,145
71395399999,HALIFAX INTL ARPT &,1949-01-01,1993-03-09,null,CA,44.883,-63.517,145
71327099999,HALIFAX WINDSOR PARK,2007-04-23,2024-01-06,null,CA,44.65,-63.6166666,51
71792099999,HALKIRK AGCM,2008-04-01,2024-01-06,null,CA,52.1166666,-112.1666666,843
71624699999,HAMILTON,1982-01-01,1983-12-06,null,CA,43.167,-79.933,239
71263099999,HAMILTON,1993-05-20,2024-01-06,null,CA,43.173611,-79.935,237.74
72624699999,HAMILTON AIRPORT  &,1973-01-01,1977-06-30,null,CA,43.167,-79.933,239
71842499999,HAMILTON RBG,2004-08-10,2004-10-13,null,CA,43.283,-79.9,102
71297099999,HAMILTON RBG CS  ONT,2004-08-03,2024-01-06,null,CA,43.2833333,-79.9,102
71963099999,HANBURY RIVER  NWT,1993-06-07,2024-01-06,null,CA,63.6,-105.1333333,317
71621599999,HARRINGTON,2005-01-14,2006-12-01,null,CA,45.8,-74.63,168
71350099999,HARRINGTON CDA CS  PEI,2004-10-05,2024-01-06,null,CA,46.35,-63.1666666,53
71814199999,HARRINGTON HARBOUR,1977-07-01,1978-11-01,null,CA,50.533,-59.5,3
71298099999,HARROW CDA AUTO,2003-06-17,2024-01-06,null,CA,42.0333333,-82.9,191
71842799999,HARROW ON,2004-05-10,2008-12-31,null,CA,42.033,-82.9,191
71507099999,HAWK HILLS AGCM,1991-08-12,2024-01-06,null,CA,57.25,-117.2833333,455
71935099999,HAY RIVER A,1934-01-01,2024-01-06,null,CA,60.8333333,-115.7833333,165.5
72935099999,HAY RIVER AIRPORT,1973-01-01,1977-07-27,null,CA,60.85,-115.767,166
71361099999,HAY RIVER CLIMATE  NWT,2004-08-03,2024-01-06,null,CA,60.8333333,-115.7666666,164
71856599999,HECLA AMOS,1977-07-01,1979-02-01,null,CA,51.167,-96.667,230
72856599999,HECLA AMOS,1975-08-07,1977-06-30,null,CA,51.167,-96.667,230
71481399999,HELMCKEN ISL(MAPS)&,1988-01-05,1988-02-25,null,CA,50.4,-125.867,19
71793099999,HEMARUKA AGCM,2008-04-01,2024-01-06,null,CA,51.7833333,-111.2166666,780
71979099999,HENDRICKSON CREEK,1995-09-01,2024-01-06,null,CA,53.8,-118.45,1448
71540099999,HESPERO AGCM,2008-07-21,2024-01-06,null,CA,52.3,-114.4833333,965
71391099999,HIGH FALLS  QC,2001-09-16,2022-10-04,null,CA,45.8333333,-75.6333333,195
71066099999,HIGH LEVEL,1977-07-01,2024-01-06,null,CA,58.621389,-117.164722,338.32
74066099999,HIGH LEVEL AIRPORT,1973-01-01,1977-06-30,null,CA,58.617,-117.167,338
71226099999,HIGH PRAIRIE AGDM  ALTA,2004-08-24,2024-01-06,null,CA,55.3833333,-116.4666666,602
71068599999,HIGH PRAIRIE ARPT,1983-07-23,1989-07-21,null,CA,55.417,-116.5,0
71241099999,HIGHVALE  ALTA,1993-07-01,1997-12-31,null,CA,53.45,-114.4666666,747
71895525237,HOLBERG,1977-07-01,1990-03-17,null,CA,50.65,-128.05,579
72895525237,HOLBERG,1973-01-01,1977-06-30,null,CA,50.65,-128,617
99999925237,HOLBERG,1956-06-11,1969-12-30,null,CA,50.65,-128,569.1
71034499999,HOLBERG  B. C.,1999-01-22,2001-11-20,null,CA,50.63,-128.12,568
71227099999,HOLDEN AGDM  ALTA,2004-07-13,2024-01-06,null,CA,53.1833333,-112.2333333,688
71842399999,HOLMAN,2004-08-31,2008-12-31,null,CA,70.75,-117.8,30
71949499999,HOLMAN,1950-01-01,2023-11-24,null,CA,70.763056,-117.805833,35.66
71029099999,HOLMAN CS,2003-06-17,2024-01-06,null,CA,70.75,-117.8,30
71187099999,HOPE,1977-07-01,2023-03-14,null,CA,49.3666666,-121.5,39
71114599999,HOPE,1977-07-01,1991-05-22,null,CA,49.367,-121.483,38
71114599999,HOPE,1977-07-01,1991-05-22,null,CA,49.367,-121.483,38
71114099999,HOPE (AUT)  BC,1955-07-02,2024-01-06,null,CA,49.3666666,-121.4833333,39
71114099999,HOPE (AUT)  BC,1955-07-02,2024-01-06,null,CA,49.3666666,-121.4833333,39
74114599999,HOPE (AUTOB),1975-12-04,1977-06-30,null,CA,49.367,-121.483,38
71114399999,HOPE (READAC),1991-06-11,1992-12-10,null,CA,49.367,-121.5,41
71114399999,HOPE (READAC),1991-06-11,1992-12-10,null,CA,49.367,-121.5,41
74114099999,HOPE AIRPORT (MAN),1973-01-01,1977-06-30,null,CA,49.367,-121.5,39
71891599999,HOPE SLIDE,1977-07-01,1997-12-31,null,CA,49.28,-121.23,674
72891599999,HOPE SLIDE,1973-01-01,1977-06-30,null,CA,49.267,-121.217,678
71104699999,HORSEFLY RIVER (AUT),1993-07-01,2001-10-02,null,CA,52,-121,846
72703199999,HOULTON INTL ARPT &,1973-01-01,1990-02-19,ME,US,46.133,-67.783,150
71026899999,HOWICK,2004-09-21,2007-06-14,null,CA,45.167,-73.867,42
72868099999,HUDSON BAY,1973-01-01,1977-06-30,null,CA,52.867,-102.4,372
71868099999,HUDSON BAY  SASK,1943-03-19,2024-01-06,null,CA,52.8166666,-102.3166666,358
71868499999,HUDSON BAY (MARS),1979-02-17,1989-07-27,null,CA,52.817,-102.317,358
71868499999,HUDSON BAY (MARS),1979-02-17,1989-07-27,null,CA,52.817,-102.317,358
71794099999,HUGHENDEN AGCM,2008-07-21,2024-01-06,null,CA,52.5666666,-110.7833333,703
71142999999,HUNTERS POINT MARINE,2005-01-01,2005-10-11,null,CA,53.03,-100.93,256
71344099999,HUSSAR AGDM  ALTA,2004-05-10,2024-01-06,null,CA,51.1833333,-112.5,971
74141599999,IDA (AUTO),1975-04-01,1977-06-30,null,CA,51.667,-98.75,265
71026999999,ILE CHARRON  QUE.,2005-02-17,2007-10-15,null,CA,45.58,-73.5,12
71426399999,ILE ROUGE (MAPS)  &,1988-01-05,1993-03-09,null,CA,47.767,-69.583,130
72709099999,ILES DE LA MADELEIN,1973-01-01,1977-06-30,null,CA,47.383,-61.867,57
71515099999,INDIAN HEAD CDA  SASK,2001-09-16,2024-01-06,null,CA,50.55,-103.65,579
74912199999,INDIAN HOUSE LAKE,1944-09-01,1949-08-14,null,CA,56.233,-64.733,311
71161199999,INDIN RIVER,2005-04-01,2005-04-01,null,CA,64.343,-115.017,478
71061499999,INDIN RIVER (MAPS),1991-04-18,1993-06-15,null,CA,64.383,-115.017,478
71944599999,INGENIKA POINT,1999-01-04,2005-02-08,null,CA,56.8,-124.9,680
71027099999,INGONISH BEACH CS,2003-06-17,2024-01-06,null,CA,46.6666666,-60.4,8
71946399999,INNER WHALEBACKS,1988-09-01,1993-06-15,null,CA,61.917,-113.717,165
71162099999,INNER WHALEBACKS  NWT,1993-07-01,2024-01-06,null,CA,61.9166666,-113.7166666,165
72703314609,INTERNATIONAL AIRPORT,2000-01-01,2024-01-07,ME,US,46.11846,-67.79289,146.42
71907099999,INUKJUAK A UA,1934-01-01,2024-01-06,null,CA,58.4666666,-78.0833333,23.1
71306099999,INUKJUAK ARPT,2004-08-24,2024-01-06,null,CA,58.4666666,-78.0833333,25
71907399999,INUKJUAK ARPT(SAWR),1988-07-25,1997-12-31,null,CA,58.467,-78.083,25
72957099999,INUVIK AIRPORT,1973-01-01,1977-06-30,null,CA,68.3,-133.483,68
71364099999,INUVIK CLIMATE  NWT,2004-06-08,2024-01-06,null,CA,68.3166666,-133.5166666,103
71957099999,INUVIK MIKE ZUBKO,1958-11-13,2024-01-06,null,CA,68.304167,-133.482778,68.27
71707599999,INVERNESS (AMOS),1977-07-01,1983-04-29,null,CA,46.233,-61.3,41
71707599999,INVERNESS (AMOS),1977-07-01,1983-04-29,null,CA,46.233,-61.3,41
72707599999,INVERNESS (MARS),1973-01-01,1977-06-30,null,CA,46.233,-61.3,41
72909099999,IQALUIT,1973-01-01,1977-08-19,null,CA,63.75,-68.55,34
71909099999,IQALUIT,1942-03-01,2024-01-06,null,CA,63.75639,-68.555832,22
71321099999,IQALUIT CLIMATE  NU,2005-02-01,2024-01-06,null,CA,63.75,-68.55,34
71528099999,IRON SPRINGS AGDM  ALTA,2004-09-21,2023-08-04,null,CA,49.9,-112.7333333,858
71795099999,IRVINE AGCM,2008-04-01,2024-01-06,null,CA,49.9833333,-110.2666666,795
71074099999,ISACHSEN (AUT)  NU,1948-05-03,2023-12-11,null,CA,78.7833333,-102.466667,48
74074099999,ISACHSEN (MAPS),1950-01-01,1977-06-30,null,CA,78.783,-103.533,27
71762099999,ISKUT RIVER (AUT),1996-11-01,1997-12-31,null,CA,56.73,-131.67,15
71331099999,ISLAND FALLS (AUT)  SASK,2004-11-09,2024-01-06,null,CA,55.5333333,-102.35,297
74918699999,ISLAND FALLS SASKATCHEWAN DOT,1943-03-15,1945-07-02,null,CA,55.533,-102.35,299
71145499999,ISLAND LAKE,1979-01-31,1986-05-09,null,CA,53.867,-94.667,238
71145499999,ISLAND LAKE,1979-01-31,1986-05-09,null,CA,53.867,-94.667,238
74145099999,ISLAND LAKE AIRPORT,1973-01-01,1977-06-30,null,CA,53.867,-94.667,238
71145099999,ISLAND LAKE AIRPORT,1977-07-01,2024-01-06,null,CA,53.85,-94.65,236
71978099999,IVVAVIK NAT. PARK  YT,1995-09-01,2024-01-06,null,CA,69.15,-140.15,244
74918899999,JARVIE WEST,1943-05-17,1945-08-18,null,CA,54.467,-114.1,624
72888099999,JASPER,1973-01-01,1977-06-30,null,CA,52.883,-118.067,1064
71888199999,JASPER  ALTA.,2005-04-22,2005-10-13,null,CA,52.88,-118.07,1061
71486099999,JASPER WARDEN  ALTA,1991-08-01,2024-01-06,null,CA,52.9333333,-118.0333333,1020
72888599999,JASPER-HINTON ARPT,1973-01-11,1973-06-30,null,CA,53.317,-117.75,1227
71541099999,JEAN COTE AGCM,2008-07-21,2024-01-06,null,CA,55.9,-117.1166666,638
71023099999,JIMMY LAKE,2003-03-30,2022-01-06,null,CA,54.92,-109.95,637
71127599999,JIMMY LAKE AWOS,1992-01-22,2004-12-09,null,CA,54.9,-109.967,637
71617099999,JONQUIERE  QUE,1992-01-06,2024-01-06,null,CA,48.4166666,-71.1333333,128
71887099999,KAMLOOPS,1955-07-02,2024-01-06,null,CA,50.702222,-120.444444,345.33
72887099999,KAMLOOPS AIRPORT,1973-01-01,1977-06-30,null,CA,50.7,-120.45,346
71741099999,KAMLOOPS AUTO,2006-10-10,2024-01-06,null,CA,50.7,-120.45,345
71843599999,KANGIKSUALUJJUAQ,2004-05-18,2024-01-06,null,CA,58.7166667,-65.9833333,60
71906599999,KANGIKSUALUJJUAQ A,1994-08-30,1997-02-24,null,CA,58.717,-65.983,60
71906399999,KANGIQSUALUJJUAQ,1990-04-24,1995-05-16,null,CA,58.717,-66,58
71906399999,KANGIQSUALUJJUAQ,1990-04-24,1995-05-16,null,CA,58.717,-66,58
71843199999,KANGIQSUJUAQ,1955-07-02,2024-01-06,null,CA,61.5833333,-71.9333333,151
71726399999,KANGIQSUJUAQ ARPT,1990-03-14,1991-02-04,null,CA,61.583,-71.933,151
71904499999,KANGIQSUJUAQ ARPT,1991-02-07,1997-02-24,null,CA,61.583,-71.933,151
71831099999,KAPUSKASING,1950-01-01,2024-01-06,null,CA,49.413889,-82.4675,226.46
71606099999,KAPUSKASING,2004-08-31,2008-12-31,null,CA,49.4,-82.45,218
72831099999,KAPUSKASING AIRPORT,1973-01-01,1977-06-30,null,CA,49.417,-82.467,227
71299099999,KAPUSKASING CDA ON  ONT,2003-06-17,2024-01-06,null,CA,49.4,-82.4333333,218
71468099999,KATATOTA ISLAND,1992-10-08,2024-01-06,null,CA,49.72,-88.33,260
71058099999,KEATS POINT NWT,2004-09-23,2022-12-17,null,CA,69.6666667,-121.6666667,330
71933199999,KEG RIVER,1955-07-02,1963-07-31,null,CA,57.783,-117.833,427
71599099999,KEJIMKUJIK 1  NS,1997-05-01,2024-01-06,null,CA,44.4166666,-65.2,165
71800999999,KELLIGREWS,1990-03-02,1990-03-17,null,CA,47.5,-53.017,3
71203099999,KELOWNA,1993-04-08,2024-01-06,null,CA,49.956112,-119.377778,429.46
71203599999,KELOWNA APT,1983-12-22,1993-02-08,null,CA,49.95,-119.383,429
72889599999,KELOWNA APT,1973-01-01,1977-06-30,null,CA,49.95,-119.383,429
71889599999,KELOWNA UA,1977-07-01,1983-12-05,null,CA,49.93,-119.4,456
71889599999,KELOWNA UA,1977-07-01,1983-12-05,null,CA,49.93,-119.4,456
71644099999,KELOWNA UBCO,2014-04-04,2024-01-06,null,CA,49.9333333,-119.4,456
71572099999,KELSEY DAM CS  MAN,2003-06-17,2024-01-06,null,CA,56.0333333,-96.5,183
71300099999,KEMPTVILLE CS  ONT,2004-08-24,2024-01-06,null,CA,45,-75.6333333,99
71850099999,KENORA A,1955-07-04,2024-01-06,null,CA,49.7833333,-94.3666666,405.99
72850099999,KENORA AIRPORT,1973-01-01,1977-06-30,null,CA,49.8,-94.367,411
71151099999,KENORA RCS,1994-01-03,2024-01-06,null,CA,49.7833333,-94.3666666,413
71671099999,KENTVILLE CDA,2005-01-01,2024-01-06,null,CA,45.07,-64.48,49
71796099999,KESSLER AGCM,2008-07-21,2024-01-06,null,CA,52.2833333,-111.1,720
71499099999,KEY LAKE,1991-08-12,2024-01-06,null,CA,57.25,-105.6166666,514
71488099999,KEY LAKE A,1994-01-21,2024-01-06,null,CA,57.25,-105.6,514
71033099999,KEY LAKE SK,2011-09-19,2024-01-06,null,CA,57.25,-105.6,513.9
74921899999,KILAGMIOTAK SE,1948-05-01,1948-10-01,null,CA,69.283,-133.933,28
71629199999,KILLALOE/BONNECHERE,1955-07-02,1963-07-31,null,CA,45.667,-77.6,181
71228099999,KILLAM AGDM  ALTA,2004-08-24,2024-01-06,null,CA,52.8333333,-111.8666666,675
71460099999,KILLARNEY (AUT)  ONT,1985-09-10,2023-02-24,null,CA,45.9666666,-81.4833333,196
71909499999,KIMMIRUT A NWT,1934-01-01,2024-01-04,null,CA,62.85,-69.8833333,53
71129099999,KINDERSLEY,1958-07-01,2024-01-06,null,CA,51.5175,-109.180833,694.02
71129499999,KINDERSLEY ARPT   &,1979-01-31,1991-01-24,null,CA,51.467,-109.167,683
74129099999,KINDERSLEY ARPT   &,1973-01-01,1977-06-30,null,CA,51.467,-109.167,683
74035599999,KING POINT (MAPS) &,1973-01-01,1974-12-31,null,CA,62.233,-133.367,694
71620099999,KINGSTON,1982-01-01,2024-01-06,null,CA,44.225277,-76.596944,92.96
71620499999,KINGSTON (MARS),1982-01-01,1988-08-30,null,CA,44.217,-76.6,93
72620099999,KINGSTON ARPT (MAN),1973-01-01,1977-06-30,null,CA,44.217,-76.6,93
71820099999,KINGSTON CLIMATE,1996-10-01,2024-01-06,null,CA,44.2166666,-76.6,93
71301099999,KIRKLAND LAKE CS  ONT,2004-09-21,2024-01-06,null,CA,48.15,-80,324
71797099999,KITSCOPTY AGCM,2008-04-01,2024-01-06,null,CA,53.35,-110.4166666,664
71050199999,KLEENA KLEENE,1957-01-06,1959-03-31,null,CA,51.983,-124.983,899
69388099999,KLONDIKE,1979-09-14,1988-11-30,null,CA,64.45,-138.217,991
71969026463,KOMAKUK BEACH ARPT,1977-07-01,1993-06-30,YT,CA,69.583,-140.183,7
72969026463,KOMAKUK BEACH ARPT,1973-08-01,1977-06-30,null,CA,69.583,-140.183,1
71670099999,KOUCHIBOUGUAC CS,2005-06-28,2024-01-06,null,CA,46.77,-65,34
71919499999,KUGAARUK,1979-01-31,2024-01-06,null,CA,68.534444,-89.808056,17.06
71407099999,KUGAARUK CLIMATE,2005-02-01,2023-03-14,null,CA,68.5333333,-89.8,16
72905099999,KUUJJUARAPIK ARPT,1973-01-01,1977-08-10,null,CA,55.283,-77.767,18
71627899999,KUUJJUARAPIK ARPT,1977-07-01,2024-01-06,null,CA,55.2833333,-77.75,10
71372099999,L'ACADIE  QUE,1992-05-05,2024-01-06,null,CA,45.2833333,-73.3333333,44
71036499999,L'ARTIFICE,2004-09-23,2007-06-14,null,CA,45.067,-73.817,61
71524099999,L'ASSOMPTION  QUE,1994-10-01,2024-01-06,null,CA,45.8,-73.4333333,21
71388099999,LA BAIE,2001-09-16,2024-01-06,null,CA,48.3,-70.9166666,152
71542099999,LA CRETE AGCM,2008-07-21,2024-01-06,null,CA,58.1666666,-116.3333333,323
71543099999,LA GLACE AGCM,2008-08-22,2024-01-06,null,CA,55.4166666,-119.25,760
71003099999,LA GRANDE 4,2008-01-01,2021-12-12,null,CA,53.75,-73.6833333,306.3
71827599999,LA GRANDE III(SAWR),1978-12-05,1997-12-31,null,CA,53.5666667,-76.2,233
71827699999,LA GRANDE IV ARPT,1978-12-05,1986-04-13,null,CA,53,-73.383,283
71823399999,LA GRANDE IV READAC,1991-09-21,1992-11-30,null,CA,53.75,-73.683,307
71823099999,LA GRANDE IV UA,1985-12-05,2024-01-06,null,CA,53.75,-73.6833333,301
71823099999,LA GRANDE IV UA,1985-12-05,2024-01-06,null,CA,53.75,-73.6833333,301
71827099999,LA GRANDE RIVIERE,1977-07-01,2024-01-06,null,CA,53.625278,-77.704167,194.76
72827099999,LA GRANDE RIVIERE,1976-10-07,1977-06-30,null,CA,53.633,-77.7,191
71713099999,LA POCATIERE  QUE,1996-03-01,2024-01-06,null,CA,47.35,-70.0166666,31
71922099999,LA RONGE,1977-07-01,2024-01-06,null,CA,55.15139,-105.261944,378.56
72922099999,LA RONGE AIRPORT,1973-01-01,1977-06-30,null,CA,55.1,-105.3,372
71586099999,LA RONGE RCS  SASK,2001-08-29,2024-01-06,null,CA,55.15,-105.2666666,379
71806099999,LA SCIE,1984-07-01,1997-05-20,null,CA,49.917,-55.667,194
71337099999,LA SCIE  NFLD,2004-08-24,2024-01-06,null,CA,49.9166666,-55.6666666,194
71378099999,LA TUQUE  QUE,1993-07-01,2024-01-06,null,CA,47.4,-72.7833333,169
71723499999,LA TUQUE A,1985-07-02,1985-12-27,null,CA,47.4,-72.783,167
71181199999,LABRADOR CSTL,1955-07-02,1961-12-31,null,CA,54.767,-58.45,10
71520099999,LAC BENOIT  QUE,1996-11-01,2024-01-06,null,CA,51.5333333,-71.1166666,549
71421099999,LAC EON  QUE,1980-03-19,2024-01-06,null,CA,51.8666666,-63.2833333,589
72931099999,LAC LA BICHE (MARS),1973-01-01,1977-06-30,null,CA,54.767,-112.017,568
74902099999,LAC MEGANTIC,1950-01-01,1959-01-01,null,CA,45.583,-70.867,415
71711199999,LAC MEGANTIC,1955-07-02,1962-04-30,null,CA,45.583,-70.867,415
71035999999,LAC MEMPHREMAGOG,2004-09-21,2024-01-06,null,CA,45.27,-72.17,209
71198099999,LAC SAINT- PIERRE  QUE,2001-07-02,2024-01-06,null,CA,46.1833333,-72.9166666,16
71316099999,LACLABICHE CLIMATE  ALTA,2004-06-08,2024-01-06,null,CA,54.7666666,-112.0166666,567
71878499999,LACOMBE CDA,1992-12-16,1993-03-30,null,CA,52.45,-113.75,874
71242099999,LACOMBE CDA 2  ALTA,1993-06-07,2024-01-06,null,CA,52.45,-113.75,860
71630599999,LAGOON CITY       &,1993-02-02,1994-12-20,null,CA,44.533,-79.217,221
71282099999,LAGOON CITY  ONT,1994-12-01,2024-01-06,null,CA,44.5333333,-79.2166666,221
72812099999,LAKE EON,1973-01-01,1977-07-20,null,CA,51.85,-63.283,593
71812199999,LAKE EON,1955-08-02,1963-07-31,null,CA,51.867,-63.283,593
99719799999,LAKE NIPISSING,2008-05-07,2008-11-03,null,CA,46.23,-79.72,176
99719499999,LAKE OF THE WOODS,2008-05-13,2008-10-10,null,CA,49.7,-94.52,323
99719699999,LAKE SIMCOE,2008-05-30,2008-09-29,null,CA,44.5,-79.37,180
99721999999,LAKE ST CLAIR,2004-09-07,2008-12-05,null,CA,42.43,-82.68,178
99477099999,LAKE ST CLAIR  MI,2004-06-08,2008-12-31,MI,US,42.47,-82.76,178.5
71640099999,LAKE SUPERIOR PROVINCIAL PARK,2014-04-04,2024-01-06,null,CA,47.7166666,-84.8166666,400.62
99723499999,LAKE WINNIPEG NARROWS,2008-06-13,2008-10-31,null,CA,51.45,-96.7,217
99719399999,LAKE WINNIPEG NORTH,2008-06-16,2008-09-29,null,CA,53.2,-98.83,217
99719199999,LAKE WINNIPEG S. BASIN,2008-05-30,2008-10-31,null,CA,50.79,-96.73,217
71846399999,LANSDOWNE HOUSE   &,1989-08-10,1991-02-04,null,CA,52.233,-87.883,255
72846099999,LANSDOWNE HOUSE   &,1973-01-01,1977-06-30,null,CA,52.233,-87.883,255
71846099999,LANSDOWNE HOUSE (AUT)  ONT,1955-07-02,2024-01-06,null,CA,52.1833333,-87.9333333,253
71697199999,LANSDOWNE HOUSE LWIS,2006-10-24,2024-01-06,null,CA,52.2,-87.93,254
71556099999,LAST MOUNTAIN CS,2001-09-16,2024-01-06,null,CA,51.4166666,-105.25,497
71040099999,LATERRIERE  QUE,1993-04-08,2024-01-06,null,CA,48.3,-71.1166666,163
71459099999,LEADER AIRPORT  SASK,1991-08-22,2024-01-06,null,CA,50.9,-109.5,676
71565099999,LEEDALE AGDM,2005-03-22,2024-01-06,null,CA,52.55,-114.47,947
71544099999,LEGAL AGCM,2008-07-21,2024-01-06,null,CA,54,-113.4666666,680
71616099999,LEMIEUX  QUE,1991-11-06,2024-01-06,null,CA,46.3,-72.05,97
71611099999,LENOXVILLE  QUE,1996-03-01,2024-01-06,null,CA,45.3666666,-71.8166666,181
71624099999,LESTER B PEARSON INTL,1950-01-01,2024-01-06,null,CA,43.677223,-79.630556,173.43
71267099999,LETHBRIDGE,2005-01-01,2024-01-06,null,CA,49.6333333,-112.8,929
72874099999,LETHBRIDGE AIRPORT,1973-01-01,1977-06-30,null,CA,49.633,-112.8,929
71243099999,LETHBRIDGE CDA,1994-12-01,2024-01-06,null,CA,49.7,-112.7666666,910
71509099999,LETHBRIDGE DEMO FARM AGDM  ALTA,2004-09-21,2024-01-06,null,CA,49.6833333,-112.75,903
72945599999,LIARD RIVER,1973-01-09,1977-06-30,null,CA,59.45,-126.15,427
71999099999,LILLOOET,2004-09-28,2024-01-06,null,CA,50.6833333,-121.9333333,235
71567099999,LINDBERGH AGDM,2005-03-22,2024-01-06,null,CA,53.95,-110.58,630
71682099999,LINDBURG LANDING  NWT,2001-09-16,2024-01-06,null,CA,61.1166666,-122.85,183
71035099999,LINDEN AGCM,2008-01-09,2024-01-06,null,CA,51.6166666,-113.65,914
71957399999,LITTLE CHICAGO,1991-09-11,1993-06-15,null,CA,67.2,-130.217,63
71164099999,LITTLE CHICAGO  NWT,1993-07-01,2024-01-06,null,CA,67.1666666,-130.2166666,63
71183599999,LITTLE MECATINA RIVER (AUT),1992-04-08,1996-01-03,null,CA,52.23,-61.32,321
74921199999,LITTLE TESLIN LAKE,1942-09-01,1943-04-01,null,CA,60.5,-133.4,782
71369799999,LIVERPOOL AIRPORT,1989-10-23,1990-05-17,null,CA,44.233,-64.85,96
71960099999,LIVERPOOL BAY,1996-02-21,2023-05-22,null,CA,69.6,-130.9,102
71871099999,LLOYDMINSTER,1983-12-01,2024-01-06,null,CA,53.309166,-110.0725,668.42
71876599999,LLOYDMINSTER A,1982-05-01,1983-12-05,null,CA,53.3,-110,648
72871099999,LLOYDMINSTER ARPT,1973-01-01,1977-06-30,null,CA,53.35,-110.833,34
71622599999,LOCHABER,2005-01-14,2007-06-14,null,CA,45.633,-75.2,105
71623099999,LONDON,1955-07-02,2024-01-06,null,CA,43.035556,-81.153889,277.97
72623099999,LONDON AIRPORT,1973-01-01,1977-06-30,null,CA,43.033,-81.15,278
71622099999,LONDON CS  ONT,2004-08-03,2024-01-06,null,CA,43.0333333,-81.15,278
71464099999,LONG POINT (AUT),1986-01-09,2023-06-21,null,CA,42.55,-80.05,175
71527599999,LONG POINT (MAPS) &,1986-01-01,1986-04-25,null,CA,42.567,-80.05,175
71945599999,LONG POND,1977-07-01,2024-01-06,null,CA,47.5166666,-52.9833333,13
74091099999,LONGSTAFF BLUFF,1973-01-01,1977-06-30,null,CA,68.95,-75.3,159
71273099999,LOON LAKE,1994-12-01,2024-01-06,null,CA,54.0166666,-109.1333333,545.6
71680099999,LOWER CARP LAKE  NWT,2001-09-16,2023-10-18,null,CA,63.6,-113.85,373
71455099999,LUCKY LAKE  SASK,1991-01-08,2024-01-06,null,CA,50.95,-107.15,665
71041599999,LUNENBURG,2005-02-17,2024-01-06,null,CA,44.37,-64.3,4
71496399999,LUPIN ARPT (SAWR),1982-06-24,1997-12-31,null,CA,65.7666667,-111.25,494
71470099999,LUPIN CS  CS,2005-01-19,2024-01-06,null,CA,65.75,-111.25,488
71843499999,LUTSEL KE,2004-05-10,2024-01-06,null,CA,62.42,-110.67,179
71529099999,LUTSELK'E CS  NWT,2003-06-18,2017-07-16,null,CA,62.4166666,-110.6666666,179
71078099999,LYNN LAKE,1977-07-01,2024-01-06,null,CA,56.863888,-101.07611,356.61
74078099999,LYNN LAKE AIRPORT,1973-01-01,1977-06-30,null,CA,56.867,-101.067,357
71632099999,LYNN LAKE RCS,1977-07-01,2024-01-06,null,CA,56.85,-101.0666666,354
71891399999,LYTTON,1989-06-16,1991-05-29,null,CA,50.233,-121.583,258
71891099999,LYTTON,1955-07-02,2024-01-06,null,CA,50.23,-121.58,229
71891499999,LYTTON (READAC),1979-01-31,1991-09-16,null,CA,50.233,-121.583,255
72891099999,LYTTON (READAC),1973-01-01,1977-06-30,null,CA,50.233,-121.583,255
71765099999,LYTTON RCS,2006-10-10,2024-01-06,null,CA,50.2166666,-121.5833333,225
71853199999,MACDONALD,1955-07-02,1959-05-15,null,CA,50.083,-98.45,255
71080499999,MACKAR INLET,1979-01-31,1979-10-27,null,CA,68.3,-85.683,399
71080099999,MACKAR INLET,1957-11-01,1997-01-15,null,CA,68.3,-85.667,395
74080099999,MACKAR INLET,1973-01-01,1977-08-02,null,CA,68.3,-85.683,399
71290099999,MACKENZIE,1994-10-01,2021-12-12,null,CA,55.2833333,-123.1333333,690
71944099999,MACKENZIE A,1977-07-01,2024-01-06,null,CA,55.3,-123.1333333,690
71944099999,MACKENZIE A,1977-07-01,2024-01-06,null,CA,55.3,-123.1333333,690
72944099999,MACKENZIE AIRPORT,1973-01-01,1977-06-30,null,CA,55.3,-123.133,700
71990099999,MACMILLAN PASS,2003-06-17,2024-01-06,null,CA,63.25,-130.0333333,1379
71774099999,MALAHAT  BC,1995-04-23,2024-01-06,null,CA,48.5666666,-123.5166666,366
71483399999,MALAHAT (AUTO8),1991-03-21,1995-04-14,null,CA,48.583,-123.583,275
71590199999,MALAY FALLS,2005-02-17,2024-01-06,null,CA,44.98,-62.48,40
71924899999,MALLOCH DOME (AUT),1981-11-24,1983-10-04,null,CA,78.22,-101.05,12
71188199999,MANICOUGAN,1961-10-27,1963-07-31,null,CA,50.65,-68.833,406
72722099999,MANIWAKI,1973-01-01,1977-08-03,null,CA,46.367,-75.983,168
71721099999,MANIWAKI AIRPORT,1993-08-01,2024-01-06,null,CA,46.2666666,-76,200
71722099999,MANIWAKI UA,1955-07-02,2006-03-07,null,CA,46.3,-76,188
71229099999,MANNING AGDM  ALTA,2004-08-24,2024-01-06,null,CA,56.9666666,-117.45,457
71047099999,MANNWILLE AGCM,2008-04-01,2024-01-06,null,CA,53.45,-111.25,656
71521099999,MANOUANE EST  QUE,1994-10-03,2024-01-06,null,CA,50.65,-70.5166666,497
71051099999,MANYBERRIES AGCM,1955-11-02,2024-01-06,null,CA,49.3666666,-110.6833333,927
71453099999,MAPLE CREEK  SASK,1990-03-14,2024-01-06,null,CA,49.9,-109.4666666,767
71026799999,MAPLE PLAINS,2005-02-17,2024-01-06,null,CA,46.3,-63.5833333,46
71051499999,MARATHON,2007-10-25,2024-01-06,null,CA,48.755278,-86.344444,315.46
71977099999,MARGARET LAKE,1995-04-23,2024-01-06,null,CA,68.8,-140.85,568
71947099999,MATAGAMI,2005-01-01,2024-01-06,null,CA,49.761667,-77.802778,279.8
71821399999,MATAGAMI (READAC),1991-08-01,1992-12-10,null,CA,49.767,-77.833,281
71821099999,MATAGAMI A,1977-07-01,2024-01-06,null,CA,49.75,-77.8,281.3
71821099999,MATAGAMI A,1977-07-01,2024-01-06,null,CA,49.75,-77.8,281.3
72821099999,MATAGAMI AIRPORT  &,1973-12-13,1977-06-30,null,CA,49.767,-77.8,277
72822599999,MATAGAMI AIRPORT  &,1973-06-08,1973-12-09,null,CA,49.767,-77.8,277
71965099999,MAYO,1934-01-01,2024-01-06,null,CA,63.616389,-135.868333,503.83
72965099999,MAYO AIRPORT,1973-01-01,1977-06-30,null,CA,63.617,-135.867,504
71149099999,MC CREARY,2001-09-16,2024-01-06,null,CA,50.7166666,-99.5333333,351
71626099999,MCGILL RADAR,1999-04-03,2006-11-22,null,CA,45.42,-73.93,63
71612099999,MCTAVISH  QUE,1994-12-01,2024-01-06,null,CA,45.5,-73.5666666,73
71125099999,MEADOW LAKE  A,1977-07-01,2024-01-06,null,CA,54.125278,-108.522778,480.36
71970099999,MEADOW LAKE - SK,2007-11-24,2024-01-06,null,CA,54.1234,-108.518902,481
71125399999,MEADOW LAKE - SK,1989-10-17,2024-01-06,null,CA,54.1234,-108.518902,481
74125099999,MEADOW LAKE AIRPORT,1973-01-01,1977-06-30,null,CA,54.117,-108.433,482
71787099999,MECHANIC SETTLEMENT RCS,2008-01-01,2024-01-06,null,CA,45.7,-65.1666666,403
71247099999,MEDICINE HAT,1993-07-01,2023-03-14,null,CA,50.0166666,-110.7166666,717
72872099999,MEDICINE HAT ARPT,1973-01-01,1977-06-30,null,CA,50.017,-110.717,717
71026099999,MEDICINE HAT RCS,2003-03-30,2024-01-06,null,CA,50.0333333,-110.7166666,715
71456099999,MELFORT  SASK,1991-01-08,2024-01-06,null,CA,52.8166666,-104.6,490
71557099999,MERRITT,1997-04-01,2024-01-06,null,CA,50.1,-120.7666666,591
71255099999,MILDRED LAKE  ALTA,1994-01-01,2023-02-07,null,CA,57.0333333,-111.55,310
71015099999,MILK RIVER RIDGE RESEVOIR,2009-08-01,2024-01-06,null,CA,49.2833333,-112.5333333,1305
74920699999,MILLS LAKE SOUTH,1944-01-23,1944-08-14,null,CA,61.25,-118.633,148
71717099999,MIRAMICHI A,1954-01-01,1997-12-31,null,CA,47,-65.45,33
71744099999,MIRAMICHI RCS,2006-01-01,2024-01-06,null,CA,47.0166666,-65.4666666,33
71381099999,MISTOOK  QUE,1994-12-01,2024-01-06,null,CA,48.5833333,-71.7,113
71467399999,MITCHELL'S BAY,1986-11-20,1988-05-20,null,CA,42.467,-82.417,186
72705099999,MONCTON AIRPORT,1973-01-01,1977-07-12,null,CA,46.117,-64.683,71
71718099999,MONT JOLI A,1955-07-02,2024-01-06,null,CA,48.6,-68.2166666,52.42
72718099999,MONT JOLI AIRPORT,1973-01-01,1977-06-30,null,CA,48.6,-68.2,52
71035199999,MONT TREMBLANT INTL INC,1942-09-04,2004-11-24,null,CA,46.409444,-74.78,252.06
71618999999,MONT-ORFORD,2005-01-01,2007-05-04,null,CA,45.317,-72.25,851
99999994792,MONTREAL DORVAL INTL AP,1950-01-01,1954-12-31,null,CA,45.467,-73.75,29.9
72627094792,MONTREAL DORVAL INTL AP,1973-01-01,1977-06-30,null,CA,45.467,-73.75,36
71905099999,MONTREAL INTL MIRABEL,1956-01-01,2024-01-06,null,CA,45.6833333,-74.0333333,82.29
71372199999,MONTREAL-EST,1955-07-02,2007-12-31,null,CA,45.63,-73.55,50
72627899999,MONTREAL/MIRABEL,1975-11-01,1977-06-30,null,CA,45.683,-74.033,82
71183099999,MONTREAL/PIERRE ELLIOTT TRUDEAU INTL  QU,1991-01-18,2024-01-06,null,CA,45.4666666,-73.7333333,32
71371099999,MONTREAL/ST HUBERT,1955-07-02,2024-01-06,null,CA,45.5166666,-73.4166666,27.43
71627094792,MONTREAL/TRUDEAU INT,1955-01-01,2024-01-06,QC,CA,45.467,-73.733,36
99721799999,MOORED BUOY 44546,2004-09-08,2008-03-04,null,null,50.3,-74.2,0
99541099999,MOORED BUOY 45134,1992-03-15,2002-01-27,null,CA,42.4,-80.5,3
71304199999,MOOSE CREEK,2005-01-01,2024-01-06,null,CA,45.25,-74.967,85
72864099999,MOOSE JAW (CAN-MIL),1973-01-01,1977-06-30,null,CA,50.333,-105.55,577
71864099999,MOOSE JAW AIR VICE MARSHAL C M MCEWEN,1955-07-02,2023-12-20,null,CA,50.330278,-105.559167,576.68
71539099999,MOOSE JAW CS  SASK,2001-09-16,2024-01-06,null,CA,50.3166666,-105.55,577
71398099999,MOOSONEE,1977-07-01,2024-01-06,null,CA,51.2833333,-80.6,9
71835599999,MOOSONEE (SAWR),1982-01-01,1991-02-04,null,CA,51.267,-80.65,10
72836099999,MOOSONEE (SAWR)   &,1973-01-01,1977-07-11,null,CA,51.267,-80.65,9
71836599999,MOOSONEE A,1955-07-02,1996-06-03,null,CA,51.283,-80.6,9
71836099999,MOOSONEE AWOS,1982-01-01,2024-01-06,null,CA,51.2833333,-80.6,9.14
71309099999,MOOSONEE RCS  ONT,2004-09-21,2024-01-06,null,CA,51.15,-80.39,10
71257099999,MORRIN AGDM  ALTA,2004-08-24,2024-01-06,null,CA,51.65,-112.6666666,836
71057099999,MOSSLEIGH AGCM,2008-07-21,2024-01-06,null,CA,50.6666666,-113.3333333,965
74072099999,MOULD BAY AIRPORT,1950-01-01,1977-06-30,null,CA,76.233,-119.333,18
71072199999,MOULD BAY AIRPORT,2005-06-09,2006-01-09,null,CA,76.2333333,-119.3166667,12
71072599999,MOULD BAY CAMP,1994-03-18,1997-03-10,null,CA,76.233,-119.317,12
71989099999,MOULD BAY CS  NWT,2001-09-16,2024-01-06,null,CA,76.2333333,-119.3333333,2
72936599999,MOUNT ARTHUR (AUT),1973-07-11,1973-07-11,null,CA,62.4,-110.733,165
71631099999,MOUNT FOREST (AUT)  ONT,1962-01-01,2024-01-06,null,CA,43.9833333,-80.75,415
72631099999,MOUNT FOREST(MARS)&,1973-01-01,1977-08-06,null,CA,43.983,-80.75,412
71947299999,MOUNT WASHINGTON,2009-01-01,2010-09-29,null,CA,50.25,-125.47,1474
71936599999,MT ARTHUR (AUT),1988-05-13,1989-02-15,null,CA,81.33,-74.77,1336
71631499999,MT FOREST,1979-11-01,1991-02-04,null,CA,43.983,-80.75,415
72945699999,MUNCHO LAKE,1973-06-16,1974-03-29,null,CA,58.917,-125.767,840
71033999999,MUNCHO LAKE,1999-01-14,2003-05-15,null,CA,58.92,-125.77,835
71945699999,MUNCHO LAKE,1943-09-16,1945-08-18,null,CA,58.917,-125.767,835
71354099999,MUNDARE AGDM  ALTA,2004-09-21,2024-01-06,null,CA,53.5666666,-112.3,683
71630099999,MUSKOKA,1955-07-02,2024-01-06,null,CA,44.974722,-79.303333,281.94
71532099999,MUSKOKA AWOS  ONT,2005-01-22,2024-01-06,null,CA,44.9666666,-79.3,282
71678099999,MUSKRAT DAM,2012-11-16,2024-01-06,null,CA,53.4333333,-91.7666666,277.7
71755099999,MUSKRAT DAM  A,2006-07-26,2024-01-06,null,CA,53.43,-91.77,278
71065099999,MYRNAM AGCM,2008-04-01,2022-10-27,null,CA,53.7166666,-111.1166666,580
71832099999,NAGAGAMI (AUT)  ONT,1982-01-01,2024-01-06,null,CA,49.7333333,-84.15,264
71840199999,NAKINA,1955-07-02,1963-07-31,null,CA,50.183,-86.7,325
71123499999,NAKISKA RIDGETOP,1991-08-27,1994-11-22,null,CA,50.95,-115.183,1914
71245099999,NAKISKA RIDGETOP  ALTA,1994-03-03,2024-01-06,null,CA,50.9333333,-115.1833333,2543
71884399999,NAKUSP (AUTO8)    &,1991-02-04,1995-04-14,null,CA,50.267,-117.817,512
71216099999,NAKUSP CS  BC,1995-04-23,2024-01-06,null,CA,50.2666666,-117.8166666,512.1
71890099999,NANAIMO,1955-07-02,2024-01-06,null,CA,49.052333,-123.870167,28.34
72890099999,NANAIMO AIRPORT,1973-01-01,1977-06-30,null,CA,49.05,-123.867,30
72914099999,NANISIVIK,1975-03-05,1977-06-30,null,CA,72.967,-84.383,639
71914399999,NANISIVIK,1988-01-05,1997-12-31,null,CA,72.982222,-84.613611,641.9
71311099999,NAPPAN AUTO  NS,2004-09-21,2024-01-06,null,CA,45.75,-64.2333333,20
71763099999,NECHAKO RIVER,1996-11-01,1997-12-31,null,CA,53.683,-124.833,715
71146199999,NEEPAWA,1955-07-02,1962-10-29,null,CA,50.233,-99.5,388
71495099999,NEIR AGDM,2004-09-21,2024-01-06,null,CA,51.3666666,-114.0833333,1145
71776099999,NELSON  BC,1995-04-23,2024-01-06,null,CA,49.4833333,-117.3,534.9
71883599999,NELSON (AUTO8)    &,1992-12-16,1995-04-14,null,CA,49.5,-117.3,535
74919799999,NELSON FORKS,1945-03-09,1945-06-17,null,CA,59.5,-124,243
71811399999,NEMISCAU ARPT(SAWR),1981-11-24,1997-12-31,null,CA,51.7,-76.1166667,244
71067099999,NEW SERPTA AGCM,2008-04-01,2024-01-06,null,CA,53.2666666,-113.1666666,765
71262599999,NIAGARA DISTRICT,1983-12-22,2024-01-06,null,CA,43.191666,-79.171667,97.84
72956099999,NICHOLSON PENINSUL&,1973-09-01,1977-06-30,null,CA,69.9,-128.967,98
71956499999,NICHOLSON PENINSUL&,1979-01-31,1979-01-31,null,CA,69.9,-128.967,98
71956199999,NICHOLSON PENINSULA,2005-01-14,2023-09-05,null,CA,69.92551,-128.973,88
71956199999,NICHOLSON PENINSULA,2005-01-14,2023-09-05,null,CA,69.92551,-128.973,88
71956199999,NICHOLSON PENINSULA,2005-01-14,2023-09-05,null,CA,69.92551,-128.973,88
71723099999,NICOLET  QUE,1991-06-11,2024-01-06,null,CA,46.2166666,-72.65,8
71714699999,NICOLET (AUTOB),1991-03-20,1991-06-11,null,CA,46.217,-72.65,10
71312099999,NIPAWIN  SASK,2004-06-08,2024-01-06,null,CA,53.3333333,-104,372
71130399999,NIPAWIN (AUTO8),1988-12-24,1995-06-05,null,CA,53.333,-104,373
74130099999,NIPAWIN AIRPORT,1973-09-21,1977-06-30,null,CA,53.333,-104,374
71130099999,NIPAWIN AIRPORT,1977-07-01,2024-01-06,null,CA,53.3333333,-104,374
71735599999,NIPISSING,1988-07-25,1994-12-20,null,CA,46.317,-79.483,0
71060099999,NORDEGG CS  ALTA,1984-01-01,2024-01-06,null,CA,52.4666666,-116.0666666,1362
71043099999,NORMAN WELLS,1945-01-01,2024-01-06,null,CA,65.28132,-126.79857,72.24
74043099999,NORMAN WELLS ARPT,1943-03-19,1977-06-30,null,CA,65.283,-126.8,73
71480099999,NORMAN WELLS CLIMATE,2005-02-01,2024-01-06,null,CA,65.28,-126.75,94
71379099999,NORMANDIN  QUE,1994-02-01,2024-01-06,null,CA,48.8333333,-72.5333333,137
72876099999,NORTH BATTLEFORD,1973-01-01,1977-06-30,null,CA,52.767,-108.25,548
71876099999,NORTH BATTLEFORD,1940-01-01,2024-01-06,null,CA,52.769167,-108.24361,548.33
71754099999,NORTH BATTLEFORD RCS,2006-02-01,2024-01-06,null,CA,52.77,-108.25,548
71731099999,NORTH BAY,1950-01-01,2024-01-06,null,CA,46.363611,-79.422778,370.33
71631399999,NORTH BAY (READAC),1991-06-11,1991-06-26,null,CA,46.367,-79.417,370
