STATION_ID,STATION,BEGIN_DATE,END_DATE,STATE,COUNTRY,LATITUDE,LONGITUDE,ELEVATION
03615099999,ABERDARE,1973-01-01,1979-04-27,null,UK,51.717,-3.467,174
03404099999,ABERDOVEY,1973-02-06,2005-10-17,null,UK,52.55,-4.067,22
03411099999,ABERHOSAN,1992-08-01,1997-12-03,null,UK,52.567,-3.717,244
03502099999,ABERPORTH,1973-01-01,2024-01-06,null,UK,52.1333333,-4.5666667,134
03653099999,ABINGDON(RAF),1973-01-01,1975-11-13,null,UK,51.683,-1.317,80
03080099999,ABOYNE NO2,1989-04-12,2024-01-06,null,UK,57.0833333,-2.8333333,140
03238099999,ALBEMARLE,2003-03-30,2024-01-06,null,UK,55.0166666,-1.8666666,146
03562199999,ALCONBURY RAF,1973-01-01,1988-01-05,null,UK,52.367,-0.217,49
03562099999,ALCONBURY RAF,1999-05-15,2005-07-10,null,UK,52.3666666,-0.2166666,47.87
03562399999,ALCONBURY RAF     &,1943-01-13,1995-03-31,null,UK,52.367,-0.217,49
03598099999,ALDEBURGH,1973-04-02,2005-09-08,null,UK,52.15,1.6,9
03917099999,ALDERGROVE,1930-02-28,2024-01-06,null,UK,54.6575,-6.215833,81.68
03044099999,ALTNAHARRA NO2,1993-03-02,2024-01-06,null,UK,58.2833333,-4.4333333,80
03684099999,ANDREWSFIELD,1998-03-01,2024-01-06,null,UK,51.8833333,0.45,87
03913099999,ANNAGHMORE,1981-05-06,1985-12-17,null,UK,54.45,-6.567,27
03793099999,ANVIL GREEN,1973-01-01,2005-02-18,null,UK,51.2,1.017,139
03041099999,AONACH MOR,1992-03-02,2024-01-06,null,UK,56.8166666,-4.9666666,1130
03129099999,ARDROSSAN,1973-01-01,2001-06-29,null,UK,55.65,-4.817,9
03795199999,ASHFORD,1973-01-01,1974-12-21,null,UK,51.15,0.883,107
03215099999,ASPATRIA,1977-11-08,1997-12-31,null,UK,54.767,-3.317,62
74900299999,ATTLEBOROUGH,1943-09-01,1945-08-31,null,UK,52.5,0.95,32
03322099999,AUGHTON,1978-08-01,2002-02-15,null,UK,53.55,-2.917,56
03063099999,AVIEMORE,1982-12-01,2024-01-06,null,UK,57.2,-3.8333333,228
03409099999,BALA,2011-06-27,2024-01-06,null,UK,52.9,-3.5833333,163
03908099999,BALLYKELLY,1997-12-01,1997-12-31,null,UK,55.0666666,-7.0166666,5
03526099999,BARBOURNE,1997-12-01,1997-12-31,null,UK,52.2,-2.217,25
03372399999,BARKSTON HEATH,1995-11-29,2024-01-06,null,UK,52.962225,-0.561625,111.86
03567199999,BASSINGBOURN,1950-11-01,2007-03-07,null,UK,52.1,-0.05,23
03824099999,BASTREET,1975-01-22,1997-12-31,null,UK,50.567,-4.483,238
03039099999,BEALACH NA BA NO2,1989-03-01,2024-01-06,null,UK,57.4166666,-5.6833333,773
03149099999,BECAME STN 031491,1973-01-01,1981-12-31,null,UK,56.067,-4.05,335
03593099999,BECCLES (AUX),1990-02-01,2003-01-20,null,UK,52.433,1.617,22
03560099999,BEDFORD,1987-04-09,2024-01-06,null,UK,52.2166666,-0.4833333,84
03558099999,BEDFORD AIRPORT,1973-01-01,2005-04-07,null,UK,52.217,-0.483,89
03845099999,BEER-IN-DEVON,1973-03-08,1984-06-07,null,UK,50.7,-3.1,52
03658099999,BENSON,1973-01-01,2024-01-06,null,UK,51.616389,-1.095833,68.88
03657099999,BENSON (AUT),1984-07-13,1993-06-24,null,UK,51.617,-1.1,57
99999935048,BENTWATERS,1951-06-01,1967-12-31,null,UK,52.133,1.433,25.9
03596199999,BENTWATERS RAF,1973-01-01,1988-01-05,null,UK,52.133,1.433,26
03596399999,BENTWATERS RAF,1945-01-01,1992-12-29,null,UK,52.1333333,1.4333333,25.91
03596335048,BENTWATERS RAF,1993-01-04,1993-03-31,null,UK,52.133,1.433,26
03626099999,BERRY HILL,1980-09-10,1983-03-12,null,UK,51.8,-2.617,25
03164099999,BIGGAR,2001-09-16,2005-05-29,null,UK,55.6,-3.55,206
03766399999,BIGGIN HILL,1988-01-05,2024-01-06,null,UK,51.330833,0.0325,182.27
03766199999,BIGGIN HILL,1984-05-19,1988-01-05,null,UK,51.283,0.033,0
03388099999,BINBROOK(RAF),1973-01-01,2005-08-20,null,UK,53.45,-0.2,108
03344099999,BINGLEY NO.2,1973-01-01,2024-01-06,null,UK,53.8166666,-1.8666666,267
03534099999,BIRMINGHAM,1973-01-01,2024-01-06,null,UK,52.453856,-1.748028,99.66
03531099999,BIRMINGHAM/EDBASTON,1929-10-01,1979-10-13,null,UK,52.483,-1.933,163
03547199999,BITTESWELL,1973-01-01,1979-06-29,null,UK,52.45,-1.25,134
03782099999,BLACKWALL,1974-11-27,1988-11-04,null,UK,51.517,0.017,5
03235099999,BOLTSHOPE PARK,1994-11-01,1997-12-31,null,UK,54.817,-2.083,434
03746099999,BOSCOMBE DOWN,1931-01-01,2024-01-06,null,UK,51.152189,-1.747414,124.05
03240099999,BOULMER,1975-10-01,2024-01-06,null,UK,55.424167,-1.603333,21.33
03862099999,BOURNEMOUTH,1973-01-01,2024-01-06,null,UK,50.78,-1.8425,11.58
03764099999,BRACKNELL (AUT),1987-12-02,2004-02-06,null,UK,51.383,-0.8,75
03763099999,BRACKNELL/BEAUFORT,1973-01-01,2023-05-24,null,UK,51.3833333,-0.7833333,74
03603099999,BRAWDY(RAF),1974-10-08,2001-09-25,null,UK,51.883,-5.117,111
03881099999,BREDE,1988-08-08,1997-12-31,null,UK,50.933,0.6,82
03096099999,BRIDGE OF CLAY,2001-09-16,2004-08-11,null,UK,56.65,-3.383,175
03292099999,BRIDLINGTON MRSC,1987-04-30,2024-01-06,null,UK,54.1,-0.1666666,19
03724399999,BRISTOL,1988-01-05,2024-01-06,null,UK,51.382669,-2.719089,189.58
03628399999,BRISTOL FILTON,1994-07-18,1997-12-30,null,UK,51.519444,-2.590833,68.88
03726099999,BRISTOL WEA CENTER,1981-08-01,1997-12-31,null,UK,51.467,-2.6,11
03724199999,BRISTOL/LULSGATE,1973-01-01,1988-01-05,null,UK,51.383,-2.717,189
03649099999,BRIZE NORTON,1951-08-01,2024-01-06,null,UK,51.749964,-1.583617,87.78
03036099999,BROADFORD,1988-03-01,1991-05-13,null,UK,57.25,-5.867,8
03216099999,BROMFIELD,1973-01-01,1978-03-23,null,UK,54.8,-3.283,20
99999915042,BRUNTINGTHORPE,1957-07-01,1962-08-24,null,UK,52.467,-1.117,150.9
03611099999,BRYNAMMAN,1973-01-01,1985-11-07,null,UK,51.817,-3.867,182
03242099999,BURNHOPE,1973-01-01,1997-03-21,null,UK,54.817,-1.717,244
03830099999,BURRINGTON,1975-05-21,1997-12-31,null,UK,50.933,-3.983,199
03065099999,CAIRNGORM SUMMIT,1985-01-06,2024-01-06,null,UK,57.1166666,-3.6333333,1245
03072099999,CAIRNWELL,1997-12-01,2024-01-06,null,UK,56.8833333,-3.4166666,933
03869099999,CALSHOT-IN-HANTS,1973-03-08,1983-07-04,null,UK,50.817,-1.3,3
03808099999,CAMBORNE,1973-01-01,2024-01-06,null,UK,50.2166666,-5.3166666,88
03571599999,CAMBRIDGE,1977-02-01,2024-01-05,null,UK,52.205,0.175,14.32
03571099999,CAMBRIDGE,1973-01-01,1975-01-06,null,UK,52.2,0.183,15
03139499999,CAMPBELTOWN,1999-01-18,2024-01-05,null,UK,55.437222,-5.686389,12.8
03305099999,CAPEL CURIG NO3,1994-10-01,2024-01-06,null,UK,53.1,-3.9333333,215
03501099999,CAPEL DEWI,1999-05-14,2004-10-29,null,UK,52.4166666,-4,92
03715099999,CARDIFF,1973-01-01,2024-01-06,null,UK,51.396667,-3.343333,67.05
03717099999,CARDIFF WEATHER CENTRE,1984-06-14,1997-12-31,null,UK,51.4833333,-3.1833333,52
03559099999,CARDINGTON,1930-03-01,2005-02-03,null,UK,52.1,-0.4166666,29
03823099999,CARDINHAM  BODMIN,1987-07-08,2024-01-06,null,UK,50.5,-4.6666666,199
03220099999,CARLISLE,1988-06-01,2024-01-06,null,UK,54.9333333,-2.9666666,27
03222099999,CARLISLE,1973-01-01,2020-03-27,null,UK,54.9375,-2.809167,57.91
03906099999,CARMONEY,1977-08-03,1997-12-31,null,UK,55.017,-7.233,73
03905099999,CARRIGANS,1973-01-01,2001-11-16,null,UK,54.667,-7.317,113
03176099999,CARTERHOUSE,1989-10-01,1997-12-31,null,UK,55.3666666,-2.5166666,308
03904099999,CASTLEDERG,1997-12-01,2024-01-06,null,UK,54.7,-7.5833333,50
03918099999,CASTOR BAY,1943-10-04,2016-09-06,null,UK,54.5,-6.3333333,18
03280099999,CATTERICK,1931-11-13,1939-09-30,null,UK,54.367,-1.617,53
03221099999,CAUSEWAY FOOT,1973-08-09,1977-11-01,null,UK,54.583,-3.083,160
03338099999,CELLARHEAD,1975-04-26,1997-03-20,null,UK,53.033,-2.083,228
03505199999,CENARTH MILL,1973-01-01,1975-07-29,null,UK,52.383,-3.5,282
03504099999,CENARTH-IN-RADNOR,1976-06-01,1982-01-06,null,UK,52.383,-3.533,305
03785099999,CHARING,1980-09-10,1997-12-31,null,UK,51.2,0.783,91
03769099999,CHARLWOOD,1992-03-01,2024-01-06,null,UK,51.1438889,-0.2294444,68
03158099999,CHARTERHALL,1987-10-02,2024-01-06,null,UK,55.7,-2.3833333,111
03833099999,CHAWLEIGH,1973-01-01,1983-01-16,null,UK,50.9,-3.8,160
99999915015,CHELVESTON,1956-06-01,1964-02-29,null,UK,52.3,0.533,92
03674099999,CHENIES(AUTO),1992-10-01,1997-12-31,null,UK,51.683,-0.533,139
03707099999,CHIVENOR,1973-01-01,2024-01-06,null,UK,51.087167,-4.150339,8.22
03355099999,CHURCH FENTON,1973-01-01,1997-12-23,null,UK,53.834333,-1.1955,8.83
03544099999,CHURCH LAWFORD,1983-08-24,2024-01-06,null,UK,52.3666666,-1.3333333,106
03614099999,CILFYNYDD,1973-07-16,2005-05-05,null,UK,51.633,-3.3,194
03768399999,CITY,1988-01-29,2024-01-06,null,UK,51.505278,0.055278,5.79
03974099999,CLONES,1973-01-01,1997-12-31,null,EI,54.1833333,-7.2333333,89
03658499999,COLERNE,1942-04-01,2023-02-07,null,UK,51.439083,-2.286389,180.74
03535099999,COLESHILL,2001-07-06,2024-01-06,null,UK,52.4833333,-1.6833333,96
03004099999,COLLAFIRTH HILL,1979-02-08,2005-07-31,null,UK,60.533,-1.383,228
03495099999,COLTISHALL,1973-01-01,1997-12-31,null,UK,52.754844,1.3579,20.11
03391099999,CONINGSBY,1943-08-01,2024-01-06,null,UK,53.093014,-0.166014,7.62
03902099999,CORGARY,1973-08-09,1997-12-31,null,UK,54.4333333,-8.05,145
03118099999,CORSEWALL PT. (LH),1973-01-01,2005-07-31,null,UK,55,-5.15,15
03414599999,COSFORD,1994-08-31,2024-01-06,null,UK,52.640028,-2.305578,82.9
03453099999,COTTESMORE,1973-01-01,1997-12-31,null,UK,52.735711,-0.648769,140.51
03541399999,COVENTRY,1988-01-05,1997-12-31,null,UK,52.369722,-1.479722,81.38
03541099999,COVENTRY AIRPORT,1976-12-21,1988-01-05,null,UK,52.367,-1.483,85
03293099999,COWDEN,1997-12-01,1997-12-31,null,UK,53.85,-0.1,15
03557199999,CRANFIELD,1973-01-01,1990-01-25,null,UK,52.067,-0.617,111
03557399999,CRANFIELD,1990-02-08,2024-01-06,null,UK,52.072222,-0.616667,109.11
03557099999,CRANFIELD,2003-10-03,2005-09-28,null,UK,52.067,-0.617,111
03379099999,CRANWELL,1929-08-01,2024-01-06,null,UK,53.03035,-0.483242,66.44
03150099999,CRAWFORDJOHN,1973-01-01,1983-07-30,null,UK,55.5,-3.767,274
03774099999,CRAWLEY,2001-11-05,2007-03-07,null,UK,51.083,-0.217,144
03809099999,CULDROSE,1973-01-01,2024-01-06,null,UK,50.086092,-5.255711,81.38
03613099999,CWMBARGOED,1973-01-01,2023-12-16,null,UK,51.75,-3.333,372
03408099999,CYNWYD,1984-06-14,1997-12-31,null,UK,52.95,-3.417,227
03116099999,DALMALLY  STRONMILCHAN,2001-09-15,2009-03-31,null,UK,56.4,-5,40
03056099999,DALWHINNIE,1931-03-01,2023-10-04,null,UK,56.933,-4.233,358
03820099999,DAVIDSTOW MOOR,1992-05-01,1997-12-31,null,UK,50.633,-4.6,291
74900399999,DEENETHORPE,1944-07-01,1945-06-30,null,UK,52.5,-0.6,105
03261099999,DISHFORTH,1992-05-01,1997-12-31,null,UK,54.137186,-1.420253,35.66
03792099999,DODDINGTON,1973-01-01,1980-09-13,null,UK,51.283,0.783,91
03405499999,DONCASTER SHEFFIELD,2005-05-07,2022-11-30,null,UK,53.474722,-1.004444,16.76
03385099999,DONNA NOOK,1992-12-08,2024-01-06,null,UK,53.4666666,0.0666666,8
03393099999,DONNA NOOK (AUT),1984-06-14,1986-07-25,null,UK,53.383,0.217,4
03155099999,DRUMALBIN,1991-05-02,2024-01-06,null,UK,55.6166666,-3.7333333,245
03209099999,DRUMBURGH,1995-10-01,1997-12-31,null,UK,54.933,-3.15,7
03154099999,DUMFRIES/DRUNGANS,1973-01-01,1997-12-31,null,UK,55.05,-3.65,16
03163499999,DUNDEE,1983-04-04,2024-01-06,null,UK,56.452499,-3.025833,5.18
03153099999,DUNDRENNAN,1983-08-04,2024-01-06,null,UK,54.8,-4,113
03840099999,DUNKESWELL AERODROME,1991-05-31,2024-01-06,null,UK,50.8666666,-3.2333333,253
03263599999,DURHAM TEES VALLEY AIRPORT,1973-01-01,2024-01-06,null,UK,54.509189,-1.429406,36.57
03091099999,DYCE,1926-06-02,2024-01-06,null,UK,57.201944,-2.197778,65.53
03877099999,EAST HOATHLY,1973-01-01,2005-08-17,null,UK,50.917,0.15,38
03790099999,EAST MALLING (AUT),1985-12-01,2001-11-18,null,UK,51.283,0.45,32
03883099999,EASTBOURNE,1973-03-08,2005-09-07,null,UK,50.783,0.3,3
03161099999,EDDLESTON,1973-01-08,2006-03-16,null,UK,55.7,-3.217,195
03160099999,EDINBURGH,1973-01-01,2024-01-06,null,UK,55.95,-3.3725,41.14
03166099999,EDINBURGH GOGARBANK,2003-03-30,2024-01-06,null,UK,55.9333333,-3.35,57
03345099999,EMLEY MOOR,1973-01-01,1997-12-31,null,UK,53.617,-1.667,259
03346099999,EMLEY MOOR NO 2,1976-12-21,2024-01-06,null,UK,53.6,-1.6666666,267
03503199999,ESGAIRWEN,1973-01-01,1977-03-01,null,UK,52.083,-4.017,332
03162099999,ESKDALEMUIR,1929-10-01,2024-01-06,null,UK,55.3166666,-3.2,242
03213099999,ESKMEALS,1973-01-02,1997-12-26,null,UK,54.317,-3.4,9
03839099999,EXETER,1973-01-01,2024-01-06,null,UK,50.734444,-3.413889,31.08
03711099999,EXTON,1973-01-01,1988-05-08,null,UK,51,-3.483,332
03644099999,FAIRFORD,1952-06-10,2024-01-06,null,UK,51.682167,-1.790028,87.17
03768099999,FARNBOROUGH,1988-05-01,2024-01-06,null,UK,51.275833,-0.776333,72.54
03766099999,FARNBOROUGH (MIL),1929-10-01,2005-10-11,null,UK,51.283,-0.767,72
03067099999,FEALAR LODGE,1986-11-01,2005-10-21,null,UK,56.9,-3.633,560
03697099999,FELIXSTOWE,1929-08-01,1939-09-30,null,UK,51.95,1.333,3
03581099999,FELTWELL,1949-01-03,1954-12-31,null,UK,52.483,0.517,14
03628099999,FILTON,1937-06-01,2017-12-31,null,UK,51.5166666,-2.5833333,59
03360099999,FINNINGLEY(RAF),1973-01-01,1995-10-01,null,UK,53.483,-1,17
03341099999,FLASH-IN-STAFFORD,1973-01-01,1979-09-29,null,UK,53.2,-1.967,457
03319099999,FLEETWOOD,1973-02-12,1987-02-23,null,UK,53.917,-3.033,8
03237099999,FOREST,1973-01-01,1979-04-04,null,UK,54.65,-2.2,381
03050099999,FORT AUGUSTUS,1973-01-01,2005-07-09,null,UK,57.133,-4.717,41
03038099999,FORT WILLIAM,1973-01-01,2002-06-10,null,UK,56.833,-5.1,20
03057099999,FOYERS,1982-04-03,1997-12-31,null,UK,57.267,-4.483,21
03281099999,FYLINGDALES,1973-01-01,2024-01-06,null,UK,54.3666666,-0.6666666,262
03168099999,GALASHIELS,1973-01-01,2005-05-23,null,UK,55.6,-2.9,146
03783099999,GALLIONS REACH,1973-01-01,1979-10-11,null,UK,51.5,-0.067,12
03776099999,GATWICK,1973-01-01,2024-01-06,null,UK,51.148056,-0.190278,61.56
03394099999,GIBRALTAR POINT,1976-10-23,2002-09-28,null,UK,53.1,0.317,4
03140099999,GLASGOW,1929-10-01,2024-01-06,null,UK,55.871944,-4.433056,7.92
03134099999,GLASGOW BISHOPTON,2003-03-30,2024-01-06,null,UK,55.9,-4.5333333,59
03145099999,GLASGOW WEA. CEN.,1973-01-01,1985-03-31,null,UK,55.867,-4.267,17
03148099999,GLEN OGLE,1996-11-01,2022-02-10,null,UK,56.4166666,-4.3166666,564
03923099999,GLENANNE NO2,1985-02-07,2024-01-06,null,UK,54.2333333,-6.5,160
03147099999,GLENLEE,1973-01-01,1990-10-31,null,UK,55.1,-4.183,55
03070099999,GLENLIVET,1973-01-01,1997-12-31,null,UK,57.35,-3.35,213
03064099999,GLENMORE LODGE,1973-01-01,1980-05-30,null,UK,57.167,-3.7,341
03633099999,GLOUCESTER,1973-01-01,1982-11-09,null,UK,51.867,-2.217,24
03633399999,GLOUCESTERSHIRE,1977-10-01,2024-01-06,null,UK,51.894167,-2.167222,30.78
03497099999,GORLESTON,1926-01-01,1981-10-31,null,UK,52.583,1.717,3
03071099999,GRANTOWN-ON-SPEY,1981-01-07,2005-10-25,null,UK,57.333,-3.633,335
03786099999,GRAVESEND,1973-01-01,2004-10-16,null,UK,51.433,0.383,5
03784099999,GRAVESEND-BROADNESS,1996-02-01,1997-12-31,null,UK,51.4666666,0.3,3
03229099999,GREAT DUN FELL,1973-01-01,1997-12-31,null,UK,54.7,-2.45,847
03227099999,GREAT DUN FELL NO2,1994-10-01,2023-07-04,null,UK,54.6833333,-2.45,847
03527099999,GREAT MALVERN,1984-06-14,1997-12-31,null,UK,52.1166666,-2.3,44
99999915040,GREENHAM,1955-10-01,1964-06-02,null,UK,51.383,-1.283,125
03743599999,GREENHAM COMMON RAF,1976-04-28,1992-04-17,null,UK,51.383,-1.283,122
03321099999,HAWARDEN,1985-09-04,2024-01-06,null,UK,53.178056,-2.977778,13.71
03772099999,HEATHROW,1948-12-01,2024-01-06,null,UK,51.4775,-0.461389,25.29
74900699999,HEMINGSTONE,1944-06-01,1945-06-30,null,UK,52.133,1.1,58
03496099999,HEMSBY,1973-01-09,1997-12-31,null,UK,52.683,1.683,14
03370099999,HEMSWELL,1949-01-01,1954-12-31,null,UK,53.4,-0.567,63
03599099999,HENLOW,1973-01-01,1981-06-01,null,UK,52.017,-0.267,95
03522099999,HEREFORD/CREDENHILL,1929-10-01,2024-01-06,null,UK,52.0833333,-2.8,76
03884099999,HERSTMONCEUX,1976-11-01,2003-01-25,null,UK,50.867,0.333,17
03882099999,HERSTMONCEUX  WEST END,1992-12-01,2024-01-06,null,UK,50.9,0.3166666,52
03487599999,HIGH WICOMBE(USAF),2004-09-01,2004-12-20,null,UK,51.62,-0.77,75
03660099999,HIGH WYCOMBE HQAIR,1997-12-01,2023-02-22,null,UK,51.6833333,-0.8,205
03920099999,HILLSBOROUGH,1979-02-08,1997-12-31,null,UK,54.483,-6.1,38
03536099999,HINTS/LICHFIELD MST,1978-12-20,1982-02-03,null,UK,52.633,-0.567,30
03342099999,HOLME MOSS,1973-01-01,1996-03-05,null,UK,53.533,-1.867,524
03340099999,HOLME MOSS (AUT),1978-11-24,2002-11-27,null,UK,53.533,-1.883,522
03586099999,HONINGTON,1973-01-01,2003-11-30,null,UK,52.333,0.767,53
03343099999,HUDDERSFIELD/OAKES,1973-01-01,1986-09-30,null,UK,53.65,-1.833,232
03373599999,HUMBERSIDE,1975-01-09,2024-01-06,null,UK,53.574444,-0.350833,36.88
99999915033,HUNTINGTON,1955-09-09,1967-12-31,null,UK,52.367,0.217,49.1
03085099999,INCHMARLO,1990-03-01,1997-12-31,null,UK,57.067,-2.533,80
03059099999,INVERNESS,1973-01-02,2024-01-06,null,UK,57.5425,-4.0475,9.44
03566199999,ISLAY,2004-05-10,2024-01-06,null,UK,55.681944,-6.256667,17.06
03105399999,ISLAY (PORT ELLEN),1988-01-07,1988-01-12,null,UK,55.683,-6.25,18
03105199999,ISLAY (PORT ELLEN),1973-04-01,1988-01-05,null,UK,55.683,-6.25,18
03105099999,ISLAY: PORT ELLEN,2001-07-29,2024-01-06,null,UK,55.6833333,-6.25,17
03789099999,JUBILEE CORNER,1973-01-05,1996-10-02,null,UK,51.183,0.633,47
03638399999,KEMBLE,1988-01-05,1992-03-31,null,UK,51.668056,-2.056944,131.97
03638099999,KEMBLE RAF,1973-01-01,1988-01-05,null,UK,51.667,-2.05,133
03781099999,KENLEY AIRFIELD,1988-02-01,2024-01-06,null,UK,51.3,-0.0833333,170
03212099999,KESWICK,1984-06-14,2024-01-06,null,UK,54.6166666,-3.1666666,81
03775099999,KEW-IN-LONDON,1929-10-01,1982-05-10,null,UK,51.467,-0.317,5
03143099999,KILLIN,1973-01-01,1989-09-08,null,UK,56.483,-4.35,114
03554099999,KINGS CLIFF RAF,1943-10-07,1945-09-03,null,UK,52.567,-0.483,77
03084099999,KIRKMICHAEL,2004-02-27,2004-02-27,null,UK,56.717,-3.517,266
03900099999,KNOCKAREVAN,1973-01-01,1997-12-31,null,UK,54.417,-8.083,50
03624099999,KYMIN,1973-01-01,1978-11-10,null,UK,51.817,-2.683,181
03410099999,LAKE VYRNWY NO2,1994-10-01,2024-01-06,null,UK,52.75,-3.4666666,359
03583099999,LAKENHEATH,1993-07-01,1997-12-31,null,UK,52.409333,0.561,9.75
03583199999,LAKENHEATH RAF,1973-01-01,1988-01-05,null,UK,52.4,0.567,10
99999935034,LAKENHEATH RAF,1949-05-01,1967-12-31,null,UK,52.4,0.567,10.1
03583399999,LAKENHEATH RAF,1949-05-01,1995-05-25,null,UK,52.4,0.567,10
03583035034,LAKENHEATH RAF,1999-01-02,2024-01-06,null,UK,52.417,0.567,10
03806099999,LANDS END ARPT,1973-03-08,2024-01-06,null,UK,50.0641,-5.709,63
03806099999,LANDS END ARPT,1973-03-08,2024-01-06,null,UK,50.0641,-5.709,63
03743099999,LARKHILL,1989-06-01,2024-01-06,null,UK,51.2,-1.8,133
03928099999,LARNE,1929-10-01,1997-12-31,null,UK,54.85,-5.8,3
03781599999,LEAVESDEN,1973-01-01,1995-04-09,null,UK,51.683,-0.417,102
03382099999,LECONFIELD,2003-03-30,2024-01-06,null,UK,53.8666666,-0.4333333,7
03383099999,LECONFIELD,1973-01-01,1978-11-26,null,UK,53.883,-0.433,9
03384099999,LECONFIELD (AUT),1981-01-12,2024-01-06,null,UK,53.8666667,-0.4333333,6
03346399999,LEEDS BRADFORD,1988-01-05,2024-01-06,null,UK,53.865897,-1.660569,207.56
03347099999,LEEDS WEATHER CTR,1986-01-01,1997-12-31,null,UK,53.8,-1.55,47
03330099999,LEEK THORNCLIFFE,2004-07-06,2024-01-06,null,UK,53.1333333,-1.9833333,299
03257099999,LEEMING,1973-01-01,2024-01-06,null,UK,54.292383,-1.5354,40.23
03171099999,LEUCHARS,1929-10-01,2024-01-06,null,UK,56.372889,-2.868444,11.58
03266099999,LINTON ON OUSE,1973-01-01,2022-07-04,null,UK,54.048911,-1.252747,16.15
03767099999,LIPHOOK,1973-01-01,1988-07-06,null,UK,51.083,-0.817,98
03710099999,LISCOMBE,1993-01-13,2024-01-06,null,UK,51.0833333,-3.6,347
03647099999,LITTLE RISSINGTON,1984-06-14,2024-01-06,null,UK,51.8666666,-1.6833333,210
03323399999,LIVERPOOL,1990-04-24,2024-01-06,null,UK,53.333611,-2.849722,24.38
03323099999,LIVERPOOL AIRPORT,1929-10-01,1990-04-03,null,UK,53.333,-2.85,26
03815099999,LIZARD LIGHTHOUSE,1988-07-19,1997-12-31,null,UK,49.967,-5.2,60
03405399999,LLANBEDR,1994-05-03,1997-12-24,null,UK,52.811744,-4.123575,9.14
03407099999,LLANBEDR,2001-08-22,2004-11-08,null,UK,52.8,-4.117,9
03031099999,LOCH GLASCARNOCH,1992-10-22,2024-01-06,null,UK,57.7166666,-4.8833333,264
03021099999,LOCHBOISDALE,1973-01-03,1997-12-23,null,UK,57.15,-7.317,6
03046099999,LOCHLUICHART,2001-09-15,2004-10-31,null,UK,57.617,-4.817,88
03778099999,LONDON WEA CENTER,1973-01-01,2003-05-14,null,UK,51.517,-0.117,23
03779099999,LONDON WEA CENTER,1992-04-01,1997-12-31,null,UK,51.5,-0.1166667,39
03908499999,LONDONDERRY EGLINTON,1990-04-24,2024-01-06,null,UK,55.042778,-7.161111,6.7
03241099999,LONG FRAMLINGTON,1989-12-01,1997-12-31,null,UK,55.3,-1.8,158
03911099999,LOUGH FEA,1994-10-03,2024-01-06,null,UK,54.7166666,-6.8166666,227
03673399999,LUTON,1988-01-05,2024-01-06,null,UK,51.874722,-0.368333,160.32
03673199999,LUTON ARPT,1973-01-01,1988-01-05,null,UK,51.883,-0.367,160
03077099999,LYBSTER,1994-10-01,1997-12-31,null,UK,58.317,-3.283,85
03795099999,LYMPNE,1929-08-01,1939-09-30,null,UK,51.083,1.017,104
03740099999,LYNEHAM,1973-01-01,2024-01-06,null,UK,51.505144,-1.993428,156.36
03512199999,LYONSHALL,2007-03-07,2007-03-07,null,UK,52.183,-2.983,178
03111099999,MACHRIHANISH,1973-01-01,2024-01-06,null,UK,55.4333333,-5.7,10
03521099999,MADLEY,1984-06-14,1997-12-31,null,UK,52.033,-2.85,78
03910099999,MAGHERA,1980-09-12,1990-01-24,null,UK,54.85,-6.7,141
03525099999,MALVERN,2005-10-02,2005-10-02,null,UK,52.083,-2.3,53
03334099999,MANCHESTER,1933-09-30,2024-01-06,null,UK,53.353744,-2.27495,78.33
03335099999,MANCHESTER/BARTON,1973-01-01,1986-07-29,null,UK,53.483,-2.25,37
03797035047,MANSTON,1930-02-28,2024-01-06,null,UK,51.35,1.333,50
99999935047,MANSTON,1950-07-20,1958-05-31,null,UK,51.35,1.367,43.9
03797099999,MANSTON,2000-01-01,2004-12-31,null,UK,51.342222,1.346111,54.25
03482099999,MARHAM,1949-04-01,2024-01-06,null,UK,52.648353,0.550692,22.86
03075599999,MERRYFIELD ARPT / RNAS,2018-10-01,2023-10-04,null,UK,50.9625,-2.935667,43.89
03075599999,MERRYFIELD ARPT / RNAS,2018-10-01,2023-10-04,null,UK,50.9625,-2.935667,43.89
03749099999,MIDDLE WALLOP,1973-08-09,2024-01-06,null,UK,51.15,-1.5666667,91
99999935046,MILDENHALL,1950-07-14,1967-12-31,null,UK,52.367,0.483,10.1
03577099999,MILDENHALL,1993-07-01,1997-12-31,null,UK,52.361933,0.486406,10.05
03577035046,MILDENHALL RAF,1999-01-01,2024-01-06,null,UK,52.367,0.483,10
03577199999,MILDENHALL RAF    &,1973-01-01,1988-01-05,null,UK,52.367,0.483,10
03577399999,MILDENHALL RAF    &,1950-07-14,1995-08-31,null,UK,52.367,0.483,10
03709099999,MINEHEAD,1987-03-01,2005-10-01,null,UK,51.2,-3.45,10
03314099999,MOEL-Y-CRIO,1986-05-01,1997-12-31,null,UK,53.2166666,-3.2166666,263
03301099999,MONA,1929-10-01,2024-01-06,null,UK,53.2666666,-4.3666666,62
03909099999,MONEYDIG,1973-01-01,1980-07-24,null,UK,54.983,-6.6,34
03606099999,MONKSTONE PT.,1973-03-08,1983-06-26,null,UK,51.7,-4.667,84
03912099999,MOYOLA,1992-12-01,1997-12-31,null,UK,54.717,-6.517,17
03402099999,MYNYDD RHIW,1973-01-01,1997-12-24,null,UK,52.817,-4.633,253
03053099999,NAIRN,1929-10-01,1930-12-31,null,UK,57.6,-3.867,52
03403099999,NANTMOR,1984-06-14,1997-12-31,null,UK,53,-4.083,53
03745099999,NETHERAVON(RA),1973-01-01,2002-03-15,null,UK,51.25,-1.767,139
03243399999,NEWCASTLE,1988-01-05,2024-01-06,null,UK,55.0375,-1.691667,81.07
03511099999,NEWCASTLE ON CLUN,1986-01-01,1997-11-22,null,UK,52.4333333,-3.1166667,215
03246099999,NEWCASTLE WEATHER CENTRE,1990-11-01,1997-12-31,null,UK,54.9833333,-1.6,52
03245099999,NEWCASTLE WX CENTRE,1973-01-01,1990-12-26,null,UK,54.967,-1.617,50
03243199999,NEWCASTLE/WOOLSING.,1973-01-01,1988-01-05,null,UK,55.033,-1.683,81
03880099999,NEWHAVEN (LGT-H),1973-01-01,1997-12-31,null,UK,50.783,0.05,5
03346599999,NEWQUAY CORNWALL,2009-02-01,2024-01-06,null,UK,50.4333333,-4.9833333,119
03346599999,NEWQUAY CORNWALL,2009-02-01,2024-01-06,null,UK,50.4333333,-4.9833333,119
03590599999,NEWTON,1995-02-10,1997-12-19,null,UK,52.967,-0.983,55
03405599999,NORTH DENES AIRPORT,2010-07-26,2015-04-30,null,UK,52.65,-1.7833333,2
03831099999,NORTH HESSARY TOR,1973-01-01,1997-12-31,null,UK,50.55,-4,510
03672099999,NORTHOLT,1973-01-01,2024-01-06,null,UK,51.553,-0.418167,37.79
03492099999,NORWICH,1987-12-02,2024-01-06,null,UK,52.675833,1.282778,35.66
03507799999,NORWICH,1977-01-14,1984-08-07,null,UK,52.683,1.283,37
03492599999,NORWICH WEA CNTRE &,1984-09-09,1988-01-05,null,UK,52.683,1.283,37
03418599999,NOTTINGHAM EAST MIDLANDS,1973-01-01,2024-01-06,null,UK,52.831111,-1.328056,93.26
03354099999,NOTTINGHAM/WATNALL,1973-01-01,2024-01-06,null,UK,53,-1.25,117
03761099999,ODIHAM,1973-01-01,2024-01-06,null,UK,51.234139,-0.942825,123.44
03832099999,OKEHAMPTON,1976-06-01,1989-10-01,null,UK,50.717,-4,372
03832199999,OKEHAMPTON - EAST OKEMENT FARM,2021-07-21,2023-12-14,null,UK,50.70348,-3.97748,408
03832199999,OKEHAMPTON - EAST OKEMENT FARM,2021-07-21,2023-12-14,null,UK,50.70348,-3.97748,408
03925099999,ORLOCK HEAD,1973-03-13,2002-01-01,null,UK,54.667,-5.583,34
03605099999,PEMBRY SANDS,1993-03-01,2024-01-06,null,UK,51.7166667,-4.3666667,3
03610099999,PENCELLI (AUX),1990-01-01,2005-05-28,null,UK,51.917,-3.317,160
03810099999,PENDENNIS POINT,1984-06-14,1997-11-06,null,UK,50.15,-5.0666666,42
03607099999,PENDINE (AUT),1973-01-01,1988-08-26,null,UK,51.75,-4.517,5
03608099999,PENDINE (AUT),1988-08-28,1997-12-31,null,UK,51.75,-4.517,5
74911799999,PENKETH,1945-01-01,1959-04-30,null,UK,53.383,-2.65,27
03346499999,PENZANCE HELIPORT,2005-01-05,2012-10-31,null,UK,50.12,-5.52,4
03528099999,PERSHORE,1973-01-01,1978-02-17,null,UK,52.133,-2.033,40
03529099999,PERSHORE,1978-03-01,2024-01-06,null,UK,52.15,-2.0333333,31
03157399999,PERTH/SCONE,1990-04-24,1993-07-01,null,UK,56.45,-3.3666667,121
03157099999,PERTH/SCONE,1981-03-30,1990-04-02,null,UK,56.433,-3.367,121
03157199999,PERTH/SCONE,1973-01-03,1981-03-27,null,UK,56.433,-3.367,121
99554099999,PLATFORM NO. 62563,1989-01-25,2004-12-29,null,US,55.12,-6.6,0
03827399999,PLYMOUTH,1988-03-18,1997-12-31,null,UK,50.422778,-4.105833,145.08
03827099999,PLYMOUTH/MOUNTBATTE,1973-01-01,2024-01-06,null,UK,50.35,-4.1166667,27
03859099999,POOLE HARBOR,2004-09-09,2004-09-10,null,UK,50.7,-1.983,5
03915099999,PORTGLENONE,1973-03-08,2024-01-06,null,UK,54.8666666,-6.45,65
03929099999,PORTMUCK,1973-03-23,1979-05-29,null,UK,54.85,-5.733,43
03135099999,PRESTWICK,1944-01-01,2024-01-06,null,UK,55.509444,-4.586667,19.81
03136099999,PRESTWICK RNAS,1993-04-01,2024-01-06,null,UK,55.5166666,-4.5833333,27
03777099999,PURLEY OAKS,1929-08-01,1939-09-30,null,UK,51.35,-0.117,66
74900999999,RAF BLYTON,1943-03-01,1943-06-30,null,UK,53.467,-0.7,240
03550099999,RAF BODNEY,1943-08-30,2007-05-01,null,UK,52.567,0.717,40
03561099999,RAF BURY ST EDMUNDS,1942-12-21,1944-06-30,null,UK,52.25,0.767,63
03553099999,RAF DEENETHORPE,1943-11-11,1945-06-04,null,UK,52.5,-0.583,101
03552099999,RAF DUXFORD,1943-06-20,1944-06-30,null,UK,52.1,0.133,30
03545099999,RAF GREAT ASHFIELD,1943-07-31,1944-06-30,null,UK,52.25,0.95,61
74911599999,RAF GROVE,1945-03-21,1945-11-20,null,UK,51.617,-1.45,83
03542099999,RAF HETHEL,1943-06-23,1945-05-21,null,UK,52.567,1.167,49
74900799999,RAF HOME-ON-SPALDING,1941-09-01,1945-10-31,null,UK,53.8,-0.75,4
03551099999,RAF HORHAM,1943-05-20,1944-06-30,null,UK,52.317,1.233,55
74911499999,RAF MOLESWORTH,1954-03-01,1957-05-31,null,UK,52.383,-0.417,74
03549099999,RAF OLD BUCKENHAM,1944-01-07,1945-05-10,null,UK,52.5,1.067,59
03543099999,RAF RIDGEWELL,1943-12-31,1945-06-08,null,UK,52.05,0.55,79
03548099999,RAF SNETTERTON HEATH,1943-07-01,1944-06-30,null,UK,52.467,0.95,45
74900199999,RAF SPILSBURY,1943-10-01,1946-05-31,null,UK,53.167,0.167,11
03546099999,RAF TIBENHAM,1943-12-01,1945-05-22,null,UK,52.45,1.15,54
03230099999,REDESDALE CAMP,1983-08-04,2024-01-06,null,UK,55.2833333,-2.2833333,212
03780099999,REDHILL,2001-07-02,2006-02-28,null,UK,51.2166666,-0.1333333,63
03106099999,RHUVAAL,1973-01-01,1982-06-23,null,UK,55.917,-6.133,20
03313099999,RHYL NO2,1986-10-01,2024-01-06,null,UK,53.25,-3.5,76
03233099999,RIBBLEHEAD,1975-12-18,1979-12-02,null,UK,54.217,-2.333,312
03627099999,ROSS-ON-WYE,1929-10-01,2023-10-04,null,UK,51.91117,-2.58574,67
03627099999,ROSS-ON-WYE,1929-10-01,2023-10-04,null,UK,51.91117,-2.58574,67
03351099999,ROSTHERNE NO 2,2012-11-30,2024-01-06,null,UK,53.3666666,-2.3833333,35
03680099999,ROTHAMSTED,2013-08-20,2024-01-06,null,UK,51.8,-0.3583333,128
03223099999,RYDAL,1975-04-26,1987-01-12,null,UK,54.45,-2.983,67
03505099999,SAINT HARMON,1975-11-17,2005-04-05,null,UK,52.333,-3.483,279
03152099999,SALSBURGH,1973-01-01,2023-10-04,null,UK,55.86149,-3.87542,277
03152099999,SALSBURGH,1973-01-01,2023-10-04,null,UK,55.86149,-3.87542,277
03139099999,SAUGHALL,1997-12-01,1997-12-31,null,UK,55.6,-4.2166666,223
03373099999,SCAMPTON,1973-01-01,2022-11-01,null,UK,53.307778,-0.550833,61.56
03006499999,SCATSTA,1981-10-15,2020-07-01,null,UK,60.432778,-1.296111,24.68
03074099999,SCRABSTER HARBOUR,1995-10-01,1997-12-31,null,UK,58.617,-3.55,10
03487099999,SCULTHORPE (AF MET),1978-07-07,2001-10-18,null,UK,52.85,0.767,65
03487399999,SCULTHORPE (AF MET),1949-06-01,1990-08-27,null,UK,52.85,0.767,65
03190099999,SEAHOUSES,1973-03-08,1979-06-29,null,UK,55.583,-1.65,11
03006099999,SELLA NESS,1981-05-01,1997-12-31,null,UK,60.45,-1.2666667,7
03507099999,SENNYBRIDGE NO2,1984-06-14,2024-01-06,null,UK,52.0666666,-3.6166666,307
03170099999,SHANWELL,1981-09-29,2005-08-21,null,UK,56.433,-2.867,5
03225099999,SHAP,1978-11-01,2024-01-06,null,UK,54.5,-2.6833333,255
03414099999,SHAWBURY,1973-01-01,2024-01-06,null,UK,52.798169,-2.668042,75.89
03415099999,SHAWBURY (SAWS),1988-07-12,1995-12-21,null,UK,52.8,-2.683,74
03347599999,SHEFFIELD CITY,1998-04-08,2024-01-06,null,UK,53.394256,-1.388486,70.4
03588199999,SHEPHERD'S GROVE,1951-06-01,1959-01-09,null,UK,52.317,0.917,60
03052199999,SHIN,2007-03-07,2007-03-07,null,UK,57.95,-4.417,7
03052099999,SHIN-IN-SUTHERLAND,1973-01-01,1980-01-10,null,UK,57.95,-4.417,7
03520099999,SHOBDON AIRFIELD,1992-08-01,2024-01-06,null,UK,52.25,-2.8833333,99
03876099999,SHOREHAM,1986-12-01,2024-01-06,null,UK,50.835556,-0.297222,2.13
03879399999,SHOREHAM-BY-SEA,1988-01-05,1990-10-16,null,UK,50.817,-0.267,18
03879099999,SHOREHAM-BY-SEA,1973-02-09,1988-01-05,null,UK,50.817,-0.25,5
03339099999,SKIPTON NO2,1973-01-01,1997-12-31,null,UK,53.9666666,-2.0333333,153
03037099999,SKYE/LUSA,1998-03-01,2017-05-02,null,UK,57.25,-5.8,18
03133099999,SLOY,1973-01-01,2004-08-14,null,UK,56.25,-4.717,6
03308099999,SNOWDON SUMMIT,1988-02-22,1997-12-16,null,UK,53.067,-4.083,1065
03023099999,SOUTH UIST RANGE,1992-03-01,2024-01-06,null,UK,57.3333333,-7.3666666,4
03865099999,SOUTHAMPTON,1973-01-01,2024-01-06,null,UK,50.950261,-1.356803,13.41
03691399999,SOUTHEND,1988-01-05,2024-01-06,null,UK,51.571389,0.695556,14.93
03691199999,SOUTHEND AIRPORT,1973-01-01,1988-01-05,null,UK,51.567,0.7,15
03828099999,SOUTHWEST YELVERTON,1929-10-01,1939-09-30,null,UK,50.483,-4.1,198
03165099999,SPADEADAM,1992-09-11,2023-12-23,null,UK,55.05,-2.55,325
03224099999,SPADEADAM NO2,1992-12-01,2023-12-23,null,UK,55.05,-2.55,286
03082099999,SPITTAL OF GLENSHEE,2004-06-11,2006-04-04,null,UK,56.7666667,-3.3833333,308
03903099999,ST ANGELO,1985-03-01,1997-12-31,null,UK,54.4,-7.65,47
03210099999,ST BEES HEAD NO.2,1984-06-14,2024-01-06,null,UK,54.5166666,-3.6,123
03770099999,ST JAMES PARK,2009-12-18,2024-01-06,null,UK,51.5,-0.1166666,5
03817099999,ST MAWGAN,1973-01-01,1997-12-31,null,UK,50.4333333,-5,118.87
03683099999,STANSTED,1973-01-01,2024-01-06,null,UK,51.885,0.235,106.07
99999935049,STANTON,1951-06-01,1959-01-09,null,UK,52.317,0.917,61
03617099999,STOREY ARMS,1987-04-05,2003-02-02,null,UK,51.867,-3.483,457
03026099999,STORNOWAY,1929-10-01,2024-01-06,null,UK,58.215556,-6.331111,7.92
03144099999,STRATHALLEN AIRFIELD,1989-05-02,2024-01-06,null,UK,56.3166666,-3.7333333,35
03054099999,STRATHY PT. (LGT-H),1978-02-11,1997-07-18,null,UK,58.6,-4.017,32
74900899999,STURGATE AIRFIELD,1943-09-01,1957-06-13,null,UK,53.381,-0.685,21
03003099999,SUMBURGH,1977-01-19,2024-01-06,null,UK,59.878889,-1.295556,6.09
03249099999,SUNDERLAND UNIVERSITY,1989-03-01,1997-12-31,null,UK,54.9833333,-1.6333333,70
03609599999,SWANSEA,1977-01-26,1997-10-06,null,UK,51.605333,-4.067833,91.13
03363199999,SYERSTON,2007-03-07,2007-03-07,null,UK,53.017,-0.917,63
03062099999,TAIN RANGE (SAWS),1989-10-19,2024-01-06,null,UK,57.8166667,-3.9666667,4
03269099999,TEESMOUTH,1975-04-26,1984-01-07,null,UK,54.65,-1.133,12
03271099999,TEESMOUTH (AUX),1992-04-01,2006-02-07,null,UK,54.62,-1.13,12
03076099999,TEMP FOR 03075,1993-03-13,1999-04-25,null,UK,58.45,-3.1,39
03454099999,TEMP FOR 03453,1993-03-18,2003-12-04,null,UK,52.733,-0.667,138
03841099999,TEMP FOR 038400,1983-08-25,1997-11-07,null,UK,50.867,-3.25,255
03418099999,TERNHILL(RAF),1973-01-01,2005-06-05,null,UK,52.867,-2.533,83
03759099999,TEST SAMOS 03761,1993-04-07,2000-07-28,null,UK,51.25,-0.95,123
03901099999,THOMASTOWN,2012-07-20,2024-01-06,null,UK,54.3333333,-7.6,72
03563099999,THORPE ABBOTTS RAF,1943-07-01,1944-06-30,null,UK,52.383,1.217,50
74900599999,TIBENHAM AIRFIELD,1944-07-01,2024-01-06,null,UK,52.457,1.162,52
74900599999,TIBENHAM AIRFIELD,1944-07-01,2024-01-06,null,UK,52.457,1.162,52
03264399999,TOPCLIFFE,1994-07-20,2024-01-06,null,UK,54.205522,-1.382094,28.04
03265099999,TOPCLIFFE,1997-05-01,2024-01-06,null,UK,54.2,-1.3833333,28
03406099999,TRAWSFYNYDD,1973-01-01,1995-09-29,null,UK,52.933,-3.933,193
03503099999,TRAWSGOED,1983-08-20,2024-01-06,null,UK,52.35,-3.95,62
03612099999,TRECASTLE,1973-01-01,1988-10-31,null,UK,51.95,-3.7,312
03047099999,TULLOCH BRIDGE,1983-08-05,2024-01-06,null,UK,56.8666666,-4.7,249
03060099999,TUMMEL BRIDGE,1973-01-01,2002-01-17,null,UK,56.7,-4.017,145
03262099999,TYNEMOUTH,1926-01-01,1997-12-31,null,UK,55.017,-1.417,30
03744099999,UPAVON,1973-01-01,2004-08-27,null,UK,51.3,-1.767,175
03655199999,UPPER HEYFORD RAF,1973-01-01,1988-01-05,null,UK,51.933,-1.25,133
03655099999,UPPER HEYFORD(USAF),1930-12-31,1939-09-30,null,UK,51.933,-1.25,134
03089099999,USAN,1973-03-08,1979-07-09,null,UK,56.683,-2.45,30
03377099999,WADDINGTON,1950-09-26,2024-01-06,null,UK,53.166167,-0.523811,70.4
03392099999,WAINFLEET (AUT),1984-06-14,2024-01-06,null,UK,53.0833333,0.2666667,5
03226099999,WARCOP RANGE,1983-08-08,2024-01-06,null,UK,54.5666666,-2.4166666,227
99999915027,WARRINGTON,1949-01-01,1959-04-30,null,UK,53.383,-2.65,27.1
03214599999,WARTON,2011-11-30,2024-01-05,null,UK,53.745097,-2.883061,16.76
74911699999,WARTON AERODROME,1945-02-05,1945-08-09,null,UK,53.75,-2.883,11
03590099999,WATTISHAM,1973-01-01,2024-01-06,null,UK,52.127283,0.956264,86.56
03688399999,WEATHERSFIELD RAF,1989-03-04,1990-01-22,null,UK,51.967,0.5,101
03688199999,WEATHERSFIELD RAF,1974-01-17,1977-06-17,null,UK,51.967,0.5,101
03130099999,WEST FREUGH,1973-01-03,2007-03-07,null,UK,54.85,-4.95,17
03132099999,WEST FREUGH (AUT),1983-08-04,2024-01-06,null,UK,54.85,-4.95,12
03787199999,WEST MALLING,1960-12-01,1964-06-30,null,UK,51.283,0.417,104
03485099999,WEST RAYNHAM,1973-01-01,1976-01-14,null,UK,52.783,0.733,76
03688099999,WETHERSFIELD(RAF),1952-05-07,1985-10-15,null,UK,51.967,0.5,98
03228099999,WHINS POND (AUX),1984-06-14,2004-01-28,null,UK,54.667,-2.7,125
03137099999,WHITHORN,1980-09-10,1994-05-09,null,UK,54.7,-4.417,40
03075099999,WICK,1929-10-01,2024-01-06,null,UK,58.458889,-3.093056,38.4
03748099999,WINCHESTER,1929-10-01,1933-08-31,null,UK,51.067,-1.317,83
03090099999,WINDY HEAD,1973-01-02,1989-01-07,null,UK,57.633,-2.233,231
03329099999,WINTER HILL,1973-01-01,2000-01-03,null,UK,53.617,-2.517,440
03462099999,WITTERING,1973-03-01,2024-01-06,null,UK,52.612558,-0.476453,83.21
03461099999,WITTERING (AUT),1984-06-14,2006-02-12,null,UK,52.617,-0.483,75
03595399999,WOODBRIDGE RAF,1954-10-01,2007-03-07,null,UK,52.083,1.4,29
03595199999,WOODBRIDGE RAF,1973-01-01,1988-01-05,null,UK,52.083,1.4,29
03348099999,WOODFORD,1929-10-01,2012-05-28,null,UK,53.3333333,-2.15,88
03018099999,WOODVALE,2005-06-20,2024-01-04,null,UK,53.581575,-3.055522,11.27
03317099999,WOODVALE(RAF),2003-10-10,2004-09-20,null,UK,52.567,-3.05,11
03625099999,WYESHAM,1979-10-15,1980-07-01,null,UK,51.8,-2.7,38
03566099999,WYTON,1950-10-03,2015-10-04,null,UK,52.357167,-0.107833,41.14
03853099999,YEOVILTON,1973-01-01,2024-01-06,null,UK,51.009358,-2.638819,22.86
03309099999,YSPYTTY IFAN,1973-01-01,1985-09-30,null,UK,53.033,-3.7,262
